,주소,위도,경도,확인
0,강원도 춘천시 동면 만천로143번길 84 ,37.87820444,127.7642084,ok
1,강원도 춘천시 백령로 215 일성트루엘더퍼스트 관리동,37.87712147,127.7458565,ok
2,강원도 춘천시 안마산로 133 이편한세상 춘천한숲시티 관리동,37.8560092,127.7298309,ok
3,"강원도 원주시 혁신로 91 509동 101호(반곡동,힐데스하임)",37.32372622,127.9832492,ok
4,"강원도 원주시 세계로 2 (반곡동, 한국광해관리공단)",37.32380735,127.9885633,ok
5,강원도 원주시  입춘로 130 ,37.32092688,127.980625,ok
6,강원도 원주시 문막읍 왕건로 114 만도사원아파트 106동109~110호,37.33018707,127.8306693,ok
7,"강원도 원주시 일산로 20 (일산동,연세대학교 원주의과대학기독병원)",37.34911654,127.9467258,ok
8,강원도 원주시 개운로 30 개운1단지휴먼시아아파트 관리동,37.338608,127.9541535,ok
9,"강원도 원주시 번재길 32 110동 (행구동, 효성백년가약아파트)",37.34541455,127.974538,ok
10,"강원도 강릉시 강변로 58 (회산동, 강릉회산LH천년나무2단지)",37.74356135,128.876684,ok
11,강원도 강릉시 죽헌길 7 ,37.76573318,128.8702174,ok
12,강원도 강릉시 회산로383번길 37 힐스테이트강릉어린이집,37.7416025,128.8652207,ok
13,강원도 강릉시 선수촌로 20 ,37.75295096,128.8679768,ok
14,강원도 강릉시 경강로 2448 102동 1층,37.77294516,128.9274821,ok
15,"강원도 태백시 청솔길 41 111-B동 203호(황지동, 청솔아파트상가)",37.16424038,128.9831395,ok
16,강원도 속초시 청대로 22-6 ,38.18427138,128.5981789,ok
17,강원도 속초시 온정로 23 도담어린이집,38.18601283,128.5908179,ok
18,강원도 삼척시 정상안길 97 금강프라자 307호,37.44588387,129.1770534,ok
19,강원도 삼척시 마달길 215 세영리첼아파트 103동 1층,37.45085027,129.1555096,ok
20,강원도 삼척시 원덕읍 삼척로 446-12 ,37.17681188,129.3358012,ok
21,강원도 평창군 대화면 평창대로 1447 ,37.54463322,128.4423047,ok
22,강원도 인제군 기린면 내린천로 3898 ,37.945443,128.3178085,ok
23,경기도 고양시 일산동구 한류월드로 281 EBS 디지털 통합사옥(장항동),37.66172442,126.7546265,ok
24,경기도 고양시 일산동구 무궁화로 260 ,37.67372415,126.7891733,ok
25,경기도 고양시 일산서구 탄현로 136 에듀포레푸르지오 108동 102호,37.70361227,126.7663969,ok
26,경기도 고양시 일산서구 탄현로 136 101동 102호(일산에듀포레푸르지오),37.70361227,126.7663969,ok
27,"경기도 고양시 덕양구 화중로104번길 50 (화정동,정부고양지방합동청사)",37.63581557,126.8340355,ok
28,"경기도 고양시 덕양구 세솔로 73 2001동 101호(삼송동,삼송2차 아이파크)",37.65146618,126.8879377,ok
29,"경기도 고양시 덕양구 서오릉로500번길 141-7 (동산동,ROKA미르시티아파트 내 보육시설)",37.16424038,128.9831395,ok
30,"경기도 고양시 덕양구 호국로 1172-1 (원신동,한빛아파트)",37.67335901,126.8655922,ok
31,경기도 고양시 덕양구 동산1로 50 화성파크드림 파디오 관리동,37.64415715,126.8836728,ok
32,경기도 고양시 덕양구 신원2로 50 동일스위트 708동 104호,37.66594394,126.8854736,ok
33,경기도 고양시 덕양구 향기2로 22 ,37.59302456,126.8917955,ok
34,경기도 고양시 덕양구 향기로 112 ,37.60005436,126.8948804,ok
35,경기도 의정부시 용민로 429-39 용암마을13단지 관리동,37.75723013,127.1165179,ok
36,"경기도 의정부시 민락로 211 110동 103호(민락동, 호반베르디움1차)",37.74509409,127.0993153,ok
37,경기도 남양주시 화도읍 경춘로2290번길 7 남양주월산2단지 부영사랑으로 관리동,37.6560753,127.3428608,ok
38,경기도 남양주시 다산지금로145번길 17 금강펜테리움1차아파트,37.60079054,127.1775183,ok
39,"경기도 파주시 가온로 205 관리동, 롯데캐슬어린이집",37.72120496,126.750203,ok
40,경기도 파주시 문산읍 당동1로 52 113동104호(한양수자인리버팰리스아파트),37.86488303,126.7749376,ok
41,경기도 파주시 문산읍 당동1로 52 114동103호(한양수자인리버팰리스아파트),37.86488303,126.7749376,ok
42,경기도 파주시 문산읍 당동1로 52 관리동,37.86488303,126.7749376,ok
43,경기도 파주시 문산읍 통일로 1750 ,37.8661821,126.7916235,ok
44,경기도 파주시 가온로 205 711-103,37.72237256,126.7509829,ok
45,경기도 파주시 광탄면 보광로 962 ,,,
46,경기도 파주시 교하로 100 ,37.72397679,126.7351753,ok
47,경기도 파주시 한빛로 20 ,37.71049104,126.7555236,ok
48,경기도 포천시 화현면 화동로 587-1 ,37.91889359,127.3091332,ok
49,경기도 포천시 소흘읍 송선로 67 원암어린이집,37.83920581,127.1454841,ok
50,경기도 양주시 백석읍 부흥로 1071-41 26사단 관사 내 어린이집,37.80177395,127.0067221,ok
51,경기도 양주시 장흥면 호국로 698 ,37.72304965,126.9909959,ok
52,경기도 양주시 은현면 화합로1169번길 31-30 ,37.85131282,127.0452233,ok
53,경기도 양주시 부흥로 1533 ,37.78535332,127.044913,ok
54,경기도 양주시 옥정서로 130 센트럴파크푸르지오아파트 910동 1층,37.825777,127.0876803,ok
55,경기도 양주시 옥정동로1길 63 e편한세상 2차 아파트 관리동,37.81757655,127.092315,ok
56,경기도 가평군 조종면 청군로 1149 꿈에그린어린이집,37.80815956,127.3515314,ok
57,경기도 가평군 조종면 청군로 1208 맹호어린이집,37.81367748,127.3510991,ok
58,경기도 연천군 연천읍 평화로 1239 ,38.07815611,127.0763048,ok
59,"경기도 수원시 권선구 호매실로166번길 33 관리동어린이집(호매실동,힐스테이트호매실)",37.25946768,126.957632,ok
60,경기도 수원시 팔달구 팔달문로 176 ,,,
61,"경기도 수원시 권선구 세류로 60 111동 102호 (세류동, LH수원센트럴타운1단지)",37.26534537,127.0103965,ok
62,"경기도 수원시 권선구 호매실로166번길 70 2002동 104호(호매실동, 호매실20단지)",37.25793368,126.9608321,ok
63,경기도 수원시 권선구 매곡로 43 211동 102호,37.26972713,126.9517643,ok
64,경기도 수원시 권선구 호매실로166번길 33 1802동 101허,37.25946768,126.957632,ok
65,"경기도 수원시 권선구 호매실로166번길 33 1805동 101호 (호매실동, 힐스테이트아파트)",37.25946768,126.957632,ok
66,"경기도 수원시 영통구 광교마을로 156 4015-102(하동,광교마을40단지아파트)",37.29548747,127.0829066,ok
67,"경기도 수원시 영통구 영통로200번길 112 관리동(망포동,SK뷰아파트)",37.24184487,127.0615076,ok
68,"경기도 수원시 영통구 덕영대로 1410 105동 102호(망포동, 영통아이파크캐슬1단지)",37.24178159,127.0436985,ok
69,"경기도 성남시 수정구 위례동로 61 창곡동, 자연앤래미안이편한세상 관리동)",37.46667885,127.1483947,ok
70,경기도 성남시 수정구 대왕판교로 1210 서울공항 영내 A지역,37.29548747,127.0829066,ok
71,"경기도 성남시 수정구 위례순환로 211 5402동101호(창곡동,위례센트럴푸르지오)",37.47144271,127.1537233,ok
72,"경기도 성남시 수정구 위례동로 61 5604동101호(창곡동,위례 자연앤래미안이편한세상)",37.46667885,127.1483947,ok
73,경기도 성남시 수정구 위례광장로 97 3214동 103호,37.47374011,127.1388774,ok
74,경기도 성남시 수정구 고등로 34 (고등동),37.4297278,127.0966345,ok
75,경기도 성남시 수정구 고등로 57 (고등동),37.43059335,127.0995234,ok
76,"경기도 성남시 중원구 여수울로 51 209동 102호(여수동,산들마을)",37.42057666,127.1365217,ok
77,경기도 성남시 중원구 금빛로2번길 10 상대원동,37.44266373,127.1703708,ok
78,경기도 성남시 분당구 정자일로 45 티맥스타워 2층(금곡동),37.35382454,127.1049463,ok
79,경기도 성남시 분당구 판교로 242 판교디지털센터 A동 101호,37.40240689,127.1011006,ok
80,경기도 성남시 분당구 판교로 344 스마일게이트 캠퍼스 1층,37.40251481,127.1122126,ok
81,경기도 성남시 분당구 내정로119번길 31-4 1층(정자동),37.37277209,127.1124499,ok
82,경기도 의정부시 시민로 1 (고산지구 S-5BL),37.7380645,127.0338354,ok
83,"경기도 의정부시 용민로 373-20 (낙양동, 민락대광로제비앙)",37.75555996,127.1102001,ok
84,"경기도 의정부시 송양로 76 (민락동, 우미린더스카이)",37.7510276,127.1131981,ok
85,경기도 안양시 만안구 삼봉로 92 ,,,
86,"경기도 안양시 만안구 안양천서로 177 205동 102호(안양동,래미안안양메가트리아)",37.39407934,126.9365174,ok
87,"경기도 안양시 만안구 안양천서로 177 110동 104호(안양동,래미안안양메가트리아)",37.39407934,126.9365174,ok
88,"경기도 안양시 만안구 안양천서로 177 204동 102호(안양동,래미안메가트리아)",37.39407934,126.9365174,ok
89,"경기도 안양시 만안구 안양천서로 177 101동 103호(안양동,래미안안양메가트리아)",37.39407934,126.9365174,ok
90,경기도 안양시 동안구 엘에스로116번길 56 ,37.37527605,126.9493922,ok
91,경기도 안양시 동안구 부림로 52 (초원LG아파트),37.38837407,126.9690275,ok
92,경기도 부천시 중동로161번길 80-1 ,37.49483985,126.7627217,ok
93,경기도 부천시 소사로 631 (여월동),37.51457556,126.8004586,ok
94,경기도 부천시 석천로60번길 29 (상동),37.49249244,126.7629844,ok
95,"경기도 부천시 옥길로 80 605동 101호 (옥길동, 엘에이치옥길브리즈힐)",37.46388524,126.8206565,ok
96,"경기도 부천시 옥길로 1 1층 (옥길동, 스타필드시티 부천)",37.46152025,126.8139403,ok
97,경기도 부천시 부일로 203 ,37.48911217,126.7524541,ok
98,경기도 광명시 기아로 34 기아자동차 고객센터 1층,37.4360851,126.8832997,ok
99,경기도 광명시 양지로 7 ,37.41818429,126.8805549,ok
100,"경기도 평택시 현촌3길 21 104동 102호(용이동, 평택용이금호어울림1단지)",36.99990259,127.1306934,ok
101,경기도 평택시 포승읍 서동대로 1297-19 ,36.9900205,126.8963158,ok
102,경기도 평택시 포승읍 연암길 46 만도사원아파트 102동 105호~106호,36.96332392,126.8512002,ok
103,경기도 평택시 청북읍 안청로4길 51 한양수자인아파트 관리동,37.02387579,126.9212477,ok
104,경기도 평택시 비전2로 317 반도유보라2차 관리동,37.01004185,127.1120809,ok
105,경기도 평택시 청북읍 청북남로 365 111-101 청북브라운스톤아파트,37.0205612,126.9051414,ok
106,"경기도 평택시 신흥1로 67 113동 103호(용이동, 이편한세상 평택용이)",37.0022907,127.1422358,ok
107,경기도 평택시 세교6로 46 관리동,37.01183494,127.0873777,ok
108,경기도 평택시 세교6로 45 관리동,37.01041166,127.0880162,ok
109,경기도 평택시 상서재로5길 15 ,37.01755189,127.0981432,ok
110,경기도 평택시 상서재로4길 13 ,37.01618489,127.1023796,ok
111,"경기도 평택시 상서재로 55 302동 102호(동삭동, 평택센트럴자이 3단지)",37.020564,127.0977274,ok
112,경기도 평택시 죽백4로 60 ,37.00497618,127.123235,ok
113,경기도 평택시 신촌1로 9 동문굿모닝힐맘시티 105동 104호,37.0260606,127.1010416,ok
114,경기도 평택시 신촌5로 56 동문굿모닝힐맘시티 405동 102호,37.02508749,127.1059379,ok
115,경기도 평택시 평남로 996 소사벌푸르지오아파트 관리동,37.00767205,127.1019346,ok
116,경기도 평택시 세교6로 19 힐스테이트평택3차 관리동 (세교동),37.00977433,127.0888508,ok
117,경기도 평택시 상서재로 80 센트럴자이5단지아파트 관리동,37.02045699,127.1033215,ok
118,경기도 평택시 신촌1로 9 평택지제역동문굿모닝힐맘시티1단지 관리동,37.0260606,127.1010416,ok
119,경기도 평택시 상서재로 50 센트럴자이4단지 관리동 어린이집,37.01852351,127.1014835,ok
120,경기도 평택시 신촌5로 56 평택지제역동문굿모닝힐맘시티4단지,37.02508749,127.1059379,ok
121,경기도 평택시 고덕국제2로 73 신동아파밀리에아파트 관리동,37.04953753,127.0444184,ok
122,경기도 평택시 신촌3로 12 ,37.02754606,127.1051489,ok
123,"경기도 안산시 단원구 평화길 13 101호(고잔동, 화랑아트빌)",37.3278528,126.8189935,ok
124,경기도 안산시 단원구 선부광장남로 63 ,37.3285289,126.8082767,ok
125,경기도 안산시 상록구 항가울로 28 ,37.28462198,126.8480863,ok
126,경기도 안산시 단원구 원선로 113 라프리모아파트,37.33280361,126.8040642,ok
127,경기도 안산시 단원구 원초로 90 ,37.32544439,126.8069978,ok
128,경기도 안산시 상록구 해안로 787 ,37.28531144,126.8352125,ok
129,경기도 안산시 상록구 화랑로 534 ,37.31972368,126.8473664,ok
130,"경기도 고양시 덕양구 향기로 25 308동 102호(향동동, DMC호반베르디움더포레)",37.59600667,126.8896701,ok
131,경기도 고양시 덕양구 향기5로 55 ,37.60771794,126.8964441,ok
132,경기도 고양시 덕양구 오부자로 15 ,37.65434493,126.9090023,ok
133,경기도 고양시 덕양구 오부자로 14 ,37.65176494,126.9114563,ok
134,"경기도 고양시 덕양구 향기로 30 109동 102호(향동동, DMC리슈빌더포레스트)",37.59374823,126.8879232,ok
135,경기도 고양시 덕양구 향동1로 20 ,37.60304817,126.8937812,ok
136,경기도 고양시 일산동구 월드고양로 21 ,37.66135831,126.7489103,ok
137,경기도 과천시 과천대로 615 솔개아파트 라동 106호,37.44895873,126.9931882,ok
138,경기도 과천시 경마공원대로 107 한국마사회,37.44121574,127.016294,ok
139,경기도 과천시 추사로 92-11 1층,37.45385081,127.0295075,ok
140,경기도 구리시 안골로64번길 10 이편한세상 수택 센트럴파크 내,37.59654111,127.1380259,ok
141,경기도 남양주시 다산지금로146번길 107 금강펜테리움2차 7506동103호,37.59698375,127.1706937,ok
142,경기도 남양주시 다산중앙로20번길 7 ,37.61612902,127.156339,ok
143,경기도 남양주시 별내5로 189-130 5403동 104호,37.6660422,127.1314123,ok
144,경기도 남양주시 다산지금로123번길 17 신안인스빌퍼스트포레 단지 내,37.60237921,127.1758024,ok
145,경기도 남양주시 다산지금로123번길 17 7206동 103호,37.60237921,127.1758024,ok
146,경기도 남양주시 다산지금로123번길 17 7204동102호,37.60237921,127.1758024,ok
147,"경기도 오산시 부산중앙로 12 관리동(부산동, 오산시티자이2단지아파트)",37.15015228,127.0915874,ok
148,경기도 오산시 운천로 16-22 원동 오산운암6단지 주공아파트 복지관 내,37.14485029,127.0775357,ok
149,경기도 오산시 부산중앙로 42 오산시티자이2차3단지아파트 내,37.15218966,127.0921738,ok
150,"경기도 오산시 세마문학로 50 120동 101호(지곶동,e편한세상아파트)",37.16843397,127.0258856,ok
151,"경기도 오산시 문시로 183-19 103동 106호(외삼미동, 서동탄역더샵파크시티)",37.19202764,127.0652389,ok
152,"경기도 오산시 오산로160번길 14 109동 102호(원동,대림e편한세상1단지)",37.14026235,127.071385,ok
153,경기도 시흥시 배곧3로 27-7 sk뷰 702동 102호,37.37535141,126.7230541,ok
154,경기도 시흥시 배곧1로 27-15 한라1차아파트 104동 104호,37.3653496,126.7125162,ok
155,경기도 시흥시 배곧1로 27-15 한라1차아파트 105동 104호,37.3653496,126.7125162,ok
156,경기도 시흥시 배곧1로 27-15 한라비발디1차 110동 101호,37.3653496,126.7125162,ok
157,경기도 시흥시 배곧4로 106-25 호반베르디움 1105동 102호,37.36996402,126.7322117,ok
158,경기도 시흥시 배곧4로 106-25 호반베르디움 1113동 102호,37.36996402,126.7322117,ok
159,경기도 시흥시 서울대학로 100 이지더원2차 에듀그린 212동 104호,37.35971348,126.7142095,ok
160,경기도 시흥시 배곧4로 106-26 1010동 101호(배곧한신더휴),37.37054425,126.7311632,ok
161,경기도 시흥시 배곧3로 27-7 708동 104호(배곧호반SK뷰),37.37535141,126.7230541,ok
162,경기도 시흥시 배곧1로 27-16 204동 101호(배곧한라비발디캠퍼스2차),37.36134839,126.7143632,ok
163,경기도 시흥시 배미골길 23 1505동 104호,37.38469586,126.8618446,ok
164,경기도 시흥시 서울대학로 328 호반베르디움더프라임 2차 912동 103호,37.37409727,126.7297871,ok
165,경기도 시흥시 목감남서로 92-15 101동 101호(중흥S클래스),37.37352046,126.8421843,ok
166,경기도 시흥시 해송십리로 472-11 관리동 어린이집,37.38389809,126.7305188,ok
167,경기도 시흥시 은계남로 11 904동 106호(은계한양수자인아파트),37.43437127,126.8017354,ok
168,경기도 시흥시 배곧4로 106-26 배곧한신더휴 1003-103,37.37054425,126.7311632,ok
169,"경기도 시흥시 배곧4로 81-29 505-104(정왕동,센텀베이2차)",37.37606158,126.7356457,ok
170,경기도 시흥시 해송십리로 472-11 배곧중흥s클래스 103-102,37.38389809,126.7305188,ok
171,"경기도 시흥시 목감둘레로 80 601동 101호(목감동, 호반베르디움더숲아파트)",37.37195236,126.847789,ok
172,"경기도 시흥시 목감남서로 35 501동 104호 (조남동,시흥목감 한신더휴센트럴파크아파트)",37.37403903,126.8489745,ok
173,경기도 시흥시 은계중앙로 115 관리동어린이집,37.44018132,126.8028378,ok
174,경기도 시흥시 배곧4로 106-25 관리동,37.36996402,126.7322117,ok
175,"경기도 시흥시 시청로 100 2601동 103호(장현동, 네이처뷰아파트)",37.38276012,126.7983824,ok
176,경기도 시흥시 인선길 14 ,37.37748184,126.7880785,ok
177,경기도 시흥시 은계중앙로 325 관리동 어린이집,37.44974732,126.7994266,ok
178,경기도 시흥시 은계북길 7 ,37.44904235,126.7981499,ok
179,경기도 시흥시 은계중앙로 115 관리동 어린이집,37.44018132,126.8028378,ok
180,"경기도 시흥시 배곧3로 27-7 701동 101호(정왕동, 배곧SK뷰아파트)",37.37535141,126.7230541,ok
181,경기도 시흥시 은계중앙로 325 112동 101호,37.44974732,126.7994266,ok
182,"경기도 시흥시 은계중앙로 325 113동 102호(대야동, 은계어반리더스아파트)",37.44974732,126.7994266,ok
183,"경기도 시흥시 은계중앙로 325 111동 102호(대야동, 은계어반리더스아파트)",37.44974732,126.7994266,ok
184,경기도 시흥시 수풀안길 25 ,37.38071974,126.8623904,ok
185,경기도 군포시 송부로96번길 29 1층,37.31339187,126.9256439,ok
186,경기도 군포시 송부로96번길 13 금강펜테리움 3차 404동 103호,37.31668323,126.9250286,ok
187,경기도 군포시 송부로49번길 10 ,37.31707859,126.9196648,ok
188,"경기도 의왕시 백운중앙로 46 (학의동, 의왕백운해링턴플레이스 1단지)",37.37068013,127.0040871,ok
189,"경기도 의왕시 경수대로 262 1층(오전동, 서해그랑블)",37.35068256,126.9731895,ok
190,경기도 의왕시 안양판교로 100 (포일동),37.39566596,126.9833366,ok
191,"경기도 의왕시 장안중앙로 42 (삼동, 의왕푸르지오포레움아파트)",37.31980691,126.9625358,ok
192,"경기도 의왕시 백운호수로1길 9 (학의동, 백운밸리 풍경채 레이크포레 4단지)",37.3675864,127.0032514,ok
193,"경기도 의왕시 바라산로 75 학의동, 의왕백운골드클래스",37.37400498,127.01311,ok
194,경기도 하남시 아리수로 499 505동 102호(미사강변도시 5단지),37.56797478,127.1820795,ok
195,경기도 하남시 위례중앙로 185 현대 엠코타운 플로리체 6307-103,37.47436971,127.1478814,ok
196,경기도 하남시 위례중앙로 215-2 관리동 어린이집,37.47480297,127.1515306,ok
197,경기도 하남시 미사강변서로 45 2201동101호(동원로얄듀크),37.55514868,127.1834063,ok
198,"경기도 하남시 미사강변서로 45 동원로얄듀크, 관리동 어린이집",37.55514868,127.1834063,ok
199,경기도 하남시 미사강변대로 240-2 8단지 관리동어린이집,37.57201203,127.1856768,ok
200,경기도 하남시 미사강변대로 95 미사강변 센트럴자이아파트 106동 104호,37.55765679,127.1853587,ok
201,경기도 하남시 미사강변대로 95 센트럴자이 101동 102호,37.55765679,127.1853587,ok
202,경기도 하남시 미사강변한강로 326-4 해링턴플레이스 관리동,37.56150713,127.1990195,ok
203,경기도 하남시 미사강변한강로 10 101동 104호(리버뷰자이),37.57464574,127.1766825,ok
204,경기도 하남시 하남유니온로 30 107동 103호,37.54567301,127.2129647,ok
205,"경기도 하남시 미사강변한강로 30 , 관리동어린이집",37.57561907,127.1799691,ok
206,경기도 하남시 미사강변대로54번길 125 6층 하남시육아종합지원센터,37.55791488,127.1884631,ok
207,"경기도 하남시 미사강변동로 47 2401동 101호(풍산동, 미사강변브라운스톤엔에이치에프)",37.55915753,127.1923741,ok
208,경기도 하남시 위례중앙로 215-2 시립다솔어린이집,37.4750842,127.1513013,ok
209,경기도 하남시 미사강변서로 65 관리동어린이집,37.55589395,127.1824339,ok
210,경기도 하남시 미사강변동로 19 관리동어린이집,37.55737619,127.1956009,ok
211,경기도 하남시 대성로 259-3 (덕풍동 현대아파트 관리동),37.53246521,127.2013399,ok
212,경기도 하남시 덕풍공원로 50 관리동어린이집,37.53806065,127.1972526,ok
213,경기도 하남시 감일순환로 35 관리동어린이집,37.50819007,127.1624276,ok
214,경기도 하남시 아리수로 499 관리동 어린이집,37.56797478,127.1820795,ok
215,경기도 용인시 기흥구 기흥역로58번길 10 ,37.2739932,127.1190297,ok
216,경기도 용인시 수지구 수지로 17 광교상현꿈에그린 아파트 관리동,37.30658283,127.0726178,ok
217,경기도 용인시 처인구 이동읍 백옥대로 737 에이스카운티아파트 103동103호,37.20227739,127.2086547,ok
218,경기도 용인시 처인구 명지로40번길 35-29 103동102호,37.23082192,127.1844007,ok
219,경기도 용인시 처인구 명지로16번길 25 우미린 센트럴파크 108동 104호,37.23323382,127.185165,ok
220,경기도 용인시 처인구 낙은로 11 105동 101호(역북동 역북신원아침도시),37.23857046,127.1973178,ok
221,경기도 용인시 처인구 남사면 한숲로 83 508동101호(이편한세상한숲시티),37.15817013,127.1701268,ok
222,경기도 용인시 처인구 아곡로 81-1 아곡리 343-1 외 2필지,37.15343971,127.1660312,ok
223,경기도 용인시 기흥구 동백죽전대로527번길 100-43 2층,37.28363301,127.1412054,ok
224,경기도 용인시 기흥구 마북로247번길 124 집현재2 가동,37.31789494,127.1254919,ok
225,"경기도 용인시 기흥구 서그내로 31 관리동(서천동,용인서천효성해링턴플레이스)",37.2451108,127.0752357,ok
226,"경기도 용인시 기흥구 서그내로16번길 30 104동 104호(서천동,영통로효성해링턴플레이스)",37.24549072,127.0703322,ok
227,"경기도 용인시 기흥구 흥덕1로 13 흥덕IT밸리 COMPLEX B동 216호,217호",37.27103056,127.0663438,ok
228,경기도 용인시 기흥구 덕영대로2077번길 33 115동 102호,37.26648211,127.0956987,ok
229,"경기도 용인시 기흥구 덕영대로2077번길 33 107동 101호(영덕동, 용인기흥 효성해링턴플레이스)",37.26648211,127.0956987,ok
230,"경기도 용인시 기흥구 덕영대로2077번길 33 T102동 101호(영덕동, 용인기흥 효성해링턴플레이스)",37.26648211,127.0956987,ok
231,"경기도 용인시 기흥구 기흥역로58번길 78 (구갈동, 기흥역더샵 아파트 관리동)",37.27347413,127.1180165,ok
232,경기도 용인시 수지구 성복1로 292 ,37.3249926,127.0544623,ok
233,경기도 용인시 수지구 신봉1로 52-8 ,37.3229119,127.0796407,ok
234,"경기도 용인시 수지구 포은대로313번길 7-10 (풍덕천동, 수지e편한세상)",37.31670202,127.0838888,ok
235,"경기도 용인시 수지구 풍덕천로171번길 9 관리동(풍덕천동, 수지파크푸르지오)",37.32683305,127.0992583,ok
236,경기도 파주시 법원읍 법원로 12 ,37.84721612,126.8772452,ok
237,경기도 파주시 청송로 1000 ,37.95051208,126.9179967,ok
238,경기도 이천시 마장면 마도로 12 아름수리아파트 주민공용시설내,37.25723972,127.3534086,ok
239,경기도 이천시 진상미로 1700-29 비승아파트 110동 101호,37.20342098,127.4609648,ok
240,경기도 이천시 모가면 진상미로1385번길 50 ,37.17803698,127.4769535,ok
241,경기도 이천시 중앙로 36 마장호반베르디움1차 관리동,37.25212527,127.3581376,ok
242,경기도 안성시 중앙로 327 기숙사동 1층,37.01018733,127.2637671,ok
243,경기도 안성시 대덕면 서동대로 4725 112동 103호(롯데캐슬센트럴시티아파트),37.0136251,127.2250584,ok
244,경기도 안성시 대덕면 서동대로 4725 129동 102호(롯데캐슬센트럴시티아파트),37.0136251,127.2250584,ok
245,경기도 안성시 대덕면 서동대로 4725 129동 101호(롯데캐슬센트럴시티아파트),37.0136251,127.2250584,ok
246,경기도 안성시 대덕면 서동대로 4725 122동 101호(롯데캐슬센트럴시티아파트),37.0136251,127.2250584,ok
247,경기도 안성시 고삼면 산문길 47-1 ,37.09817589,127.2944315,ok
248,경기도 안성시 비봉로 37 푸르지오아파트 관리동,37.01088232,127.2887054,ok
249,경기도 안성시 아양3로 56 광신프로그레스아파트 104동 1층,37.00618162,127.2535813,ok
250,"경기도 김포시 김포한강8로 365 나비마을1단지 관리동어린이집(구래동,LH김포센트럴리버아파트)",37.64337539,126.6286039,ok
251,"경기도 김포시 태장로 845 106동 102호(장기동, 한강센트럴자이1단지)",37.63579294,126.6771456,ok
252,경기도 김포시 태장로 846 206동 103호(장기동 한강센트럴자이 2차),37.63556818,126.6726817,ok
253,"경기도 김포시 김포대로 1430 602동 104호(운양동, 리버에일린의뜰)",37.65337795,126.6734283,ok
254,"경기도 김포시 사우로 51 109동 101호(사우동, 김포사우아이파크)",37.6205958,126.7273139,ok
255,"경기도 김포시 사우로 51 110동 102호(사우동, 김포사우아이파크)",37.6205958,126.7273139,ok
256,"경기도 김포시 사우로 51 (사우동, 김포사우아이파크단지내)",37.6205958,126.7273139,ok
257,경기도 김포시 유현로33번길 73 ,37.60050982,126.7249005,ok
258,경기도 김포시 김포한강11로 37 (운양Kcc스위첸 단지내),37.64402588,126.6928912,ok
259,경기도 김포시 김포대로 1430 (운양리버에일린의뜰 단지내),37.65337795,126.6734283,ok
260,경기도 화성시 향남읍 상신하길로328번길 21 311동101호(사랑으로부영),37.11921271,126.9124737,ok
261,경기도 화성시 향남읍 상신하길로328번길 21 서봉마을사랑으로부영3단지 복지동 1층,37.11921271,126.9124737,ok
262,"경기도 화성시 동탄대로시범길 19 관리동(청계동, 동탄역시범더샵센트럴시티)",37.19959212,127.1004698,ok
263,"경기도 화성시 동탄대로시범길 20 관리동 (청계동, 한화꿈에그린프레스티지)",37.1963553,127.0996895,ok
264,경기도 화성시 향남읍 상신하길로273번길 60 LH 서봉마을 5단지,37.11668904,126.9061451,ok
265,경기도 화성시 향남읍 하길로 9 관리동 (오색마을 사랑으로부영11단지아파트),37.11177558,126.9165722,ok
266,경기도 화성시 향남읍 상신하길로274번길 21 711동 102호(서봉마을 사랑으로부영7단지아파트),37.11434763,126.9101135,ok
267,경기도 화성시 동탄면 동탄대로9길 19 관리동(LH26단지 아파트),37.17496876,127.1047324,ok
268,"경기도 화성시 동탄기흥로353번길 77 1605동 102호(오산동, 에일린의 뜰)",37.19026067,127.0865007,ok
269,경기도 화성시 동탄기흥로277번길 12 시립동탄행복어린이집,37.18551664,127.091514,ok
270,경기도 화성시 남양읍 시청로32번길 59 양우내안애1차 104동 1층,37.20198546,126.8220589,ok
271,"경기도 화성시 동탄대로12길 64 관리동(오산동, 금강펜테리움 센트럴파크 1차)",37.18109363,127.1067154,ok
272,경기도 화성시 동탄순환대로 881-10 710동 102호,37.20875737,127.0890506,ok
273,경기도 화성시 향남읍 상신하길로 65 17단지부영사랑으로아파트 내 관리동,37.10024889,126.895964,ok
274,경기도 화성시 동탄순환대로 881-10 704동 105호,37.20875737,127.0890506,ok
275,경기도 화성시 안녕남로 246-21 101동 101호,37.20386738,127.0052714,ok
276,경기도 화성시 수노을1로 235 102동101호,37.28041913,126.8238033,ok
277,경기도 화성시 동탄기흥로 479-12 관리동,37.20365545,127.0919936,ok
278,경기도 화성시 동탄순환대로12길 85 3639동 101호,37.1670603,127.1281858,ok
279,경기도 화성시 향남읍 상신하길로273번길 57 모아미래도 관리동,37.11703177,126.9051955,ok
280,"경기도 화성시 동탄산척로 92 2562동 102호(산척동, 더레이크시티부영3단지)",37.17190108,127.109263,ok
281,경기도 화성시 수노을1로 191 ,37.28533181,126.8222663,ok
282,"경기도 화성시 동탄순환대로9길 12 3065동 103호(산척동, 더레이크시티부영6단지)",37.16776256,127.114487,ok
283,"경기도 화성시 동탄순환대로10길 88 3604동 101호(산척동, 레이크힐 반도유보라 아이비파크 10.2)",37.16623103,127.1279658,ok
284,"경기도 화성시 동탄순환대로10길 88 3603동 102호(산척동, 레이크힐 반도유보라 아이비파크 10.2)",37.16623103,127.1279658,ok
285,경기도 화성시 수노을중앙로 178 새솔동주민센터내,37.28124581,126.8187163,ok
286,경기도 화성시 동탄지성로 319-19 관리동,37.22155854,127.0488882,ok
287,"경기도 화성시 동탄산척로 92 관리동(산척동, 더레이크시티부영3단지)",37.17104694,127.1096869,ok
288,"경기도 화성시 동탄산척로 93-17 2510동 104호(산척동, 동탄 더샵 레이크에듀타운)",37.1748834,127.1069843,ok
289,경기도 화성시 동탄순환대로17길 31 관리동,37.17435418,127.1148147,ok
290,"경기도 화성시 동탄대로1길 96 2820동 101호(장지동, 엔에이치에프엘크루)",37.16148421,127.0945201,ok
291,경기도 화성시 동탄대로1길 96 ,37.16148421,127.0945201,ok
292,경기도 화성시 수노을중앙로 257 ,37.2774831,126.8258165,ok
293,경기도 화성시 동탄순환대로19길 59 ,37.18524139,127.1200533,ok
294,경기도 화성시 수노을1로 108 ,37.28854234,126.8172076,ok
295,경기도 화성시 수노을1로 107 ,37.28994694,126.8168959,ok
296,경기도 화성시 수노을1로 147 ,37.28721094,126.8201874,ok
297,경기도 화성시 남양읍 남양천로 17 301동103호 시티프라디움3차,37.20860095,126.820137,ok
298,경기도 화성시 동부대로 951 ,37.18586388,127.0877367,ok
299,경기도 화성시 남양읍 역골중앙로 118 ,37.2091846,126.8272434,ok
300,경기도 화성시 동탄대로4길 123 ,37.16198255,127.1196834,ok
301,경기도 화성시 동탄대로1길 20 관리동,37.16088619,127.1032547,ok
302,경기도 화성시 동탄순환대로19길 21 관리동,37.18770588,127.1219717,ok
303,경기도 화성시 동탄원천로 214-6 ,37.21083317,127.0708138,ok
304,경기도 광주시 남한산성면 양지말길 19-28 ,37.44032321,127.2823662,ok
305,경기도 광주시 순암로36번길 87 3단지 관리동 1층,37.39899421,127.2458397,ok
306,경기도 광주시 순암로36번길 41 e편한세상아파트 5단지 관리동 1층,37.39714119,127.2468704,ok
307,"경기도 광주시 순암로36번길 30 관리동, 1층",37.3956739,127.2469901,ok
308,경기도 광주시 태전동로 54 태전힐스테이트아파트 1518동 101호,37.38369799,127.2313956,ok
309,경기도 광주시 태전동로 16 이편한세상태전2차아파트 202동 103호,37.38748365,127.2330377,ok
310,경기도 광주시 태봉로 77 301동 103호(성원아파트 3단지),37.3863273,127.2300371,ok
311,경기도 광주시 오포읍 고산길62번길 49-7 1층,37.37591229,127.2262536,ok
312,경기도 광주시 경안천로 91 108동 부속건물,37.41604919,127.2696596,ok
313,경기도 광주시 오포읍 태재로 20-15 101동 103호(태재e편한세상1단지),37.35867574,127.1562205,ok
314,경기도 광주시 태성로 130 힐스테이트 태전 9단지 관리동,37.37831669,127.227512,ok
315,경기도 광주시 태성로 107 태전동 힐스테이트 7블럭 관리동,37.38031789,127.2287084,ok
316,경기도 광주시 회안대로 621-21 벽산블루밍아파트 1단지 관리동,37.40825415,127.2359825,ok
317,경기도 광주시 벼루개길42번길 24-3 ,37.38007416,127.2326867,ok
318,경기도 광주시 태전동로 54 ,37.38369799,127.2313956,ok
319,경기도 광주시 오포읍 태재로 20-30 104동 1층(라온프라이빗아파트),37.35747195,127.1498325,ok
320,경기도 광주시 오포읍 문형새솔길 9 관리동(문형 양우내안애 아파트),37.33617584,127.2080487,ok
321,경기도 양평군 양평읍 중앙로167번길 8 한신휴플러스 104동,37.49281862,127.5077374,ok
322,경상남도 창원시 성산구 원이대로863번길 19 더샵센터럴파크2단지아파트 관리동,35.20913742,128.6976493,ok
323,경상남도 창원시 의창구 북면 무동서로 76 창원무동 STX KAN 1차 아파트 보육시설,35.32265017,128.5824634,ok
324,경상남도 창원시 의창구 북면 무동서로 24 무동센텀파라디아아파트,35.31907083,128.5802836,ok
325,경상남도 창원시 의창구 북면 감계로 342 덕산아내에코프리미엄2차아파트,35.30188757,128.5972325,ok
326,경상남도 창원시 의창구 북면 무동서로 76 105동 101호(창원무동 STX KAN 1차아파트),35.32265017,128.5824634,ok
327,"경상남도 창원시 의창구 창원천로 34 (대원동, 대원꿈에그린)",35.23425202,128.6477652,ok
328,경상남도 창원시 성산구 동산로 115 대동아동아파트 112동 105호,35.21905794,128.6876159,ok
329,"경상남도 창원시 성산구 가음정로 59 (가음동, 창원센텀푸르지오아파트)",35.2083864,128.6909558,ok
330,"경상남도 창원시 마산합포구 현동10길 19 (현동,아파트동 1층)",35.14567847,128.5501243,ok
331,경상남도 창원시 마산합포구 묘촌1길 28 602동 101호(LH그린품애),35.14035944,128.5596215,ok
332,경상남도 창원시 마산회원구 삼호로 80 메트로시티2차아파트내,35.22367286,128.5845659,ok
333,경상남도 창원시 마산회원구 팔용로 158 ,35.24299639,128.5919658,ok
334,"경상남도 창원시 마산회원구 합성북16길 197 (합성동, 롯데캐슬더퍼스트)",35.24508336,128.5865316,ok
335,"경상남도 창원시 마산회원구 석전남8길 40 109동(석전동,창원 메트로시티 석전)",35.22980108,128.5707311,ok
336,경상남도 창원시 진해구 안골로298번길 26 114동(복리동),35.09820229,128.8064259,ok
337,경상남도 창원시 진해구 냉천로 262 110동(관리동),35.15395503,128.7170738,ok
338,경상남도 창원시 진해구 신항동로 136 부산신항8단지 부영아파트 어린이집,35.08994723,128.8116927,ok
339,경상남도 창원시 진해구 냉천로 235 에일린의뜰,35.15492589,128.721444,ok
340,"경상남도 창원시 진해구 웅천동로 100 (남문동, 남문시티프라디움2차아파트)",35.10439762,128.7511545,ok
341,"경상남도 진주시 사들로 35 803동 104호 (충무공동, LH아파트8단지)",35.17293885,128.1460625,ok
342,경상남도 진주시 진주대로1208번길 9 (봉곡동),35.19483565,128.070808,ok
343,"경상남도 진주시 사들로 13 903동 105호 (충무공동, LH아파트9단지)",35.17207162,128.1446232,ok
344,"경상남도 진주시 진주역로73번길 33 110동101호(가좌동,센트럴웰가)",35.15268698,128.11128,ok
345,"경상남도 진주시 정촌면 삼일로106번길 8 111동, 1층",35.12881182,128.0993179,ok
346,"경상남도 진주시 가호로 17-10 관리동(가좌동, 올리움아파트)",35.16443597,128.1081351,ok
347,"경상남도 진주시 진주역로73번길 33 103동, 1층(가좌동, 센트럴웰가)",35.15268698,128.11128,ok
348,"경상남도 진주시 개양로 100 (가좌동, SKY시티프라디움)",35.15507463,128.1165239,ok
349,경상남도 통영시 봉수로 15 ,34.82986079,128.4149381,ok
350,경상남도 사천시 한내4길 71 ,34.93702965,128.0772911,ok
351,경상남도 사천시 종포산단로 133 금나래어린이집,35.03003363,128.0460202,ok
352,"경상남도 사천시 신항로 64 201동(동금동, 예미지아파트)",34.93251194,128.0857383,ok
353,경상남도 김해시 진영읍 장등로 94 중흥S클래스 3단지 리버티 306동 102호,35.3126678,128.7316237,ok
354,경상남도 김해시 진영읍 장등로 94 중흥S클래스 3단지 리버티 313동 103호,35.3126678,128.7316237,ok
355,경상남도 김해시 진영읍 장등로 94 중흥S클래스 3단지 리버티 310동 103호,35.3126678,128.7316237,ok
356,경상남도 김해시 진영읍 장등로 94 314동 103호,35.3126678,128.7316237,ok
357,경상남도 김해시 진영읍 진영산복로 20 동문굿모닝힐 1차 부4동 1층,35.30363648,128.7190907,ok
358,경상남도 김해시 진영읍 진산대로 61 206동 102호(이진캐스빌아파트),35.31132854,128.7256733,ok
359,경상남도 김해시 진영읍 장등1로31번길 7 진영휴먼빌아파트 관리동,35.31434595,128.7377322,ok
360,경상남도 김해시 주촌면 선지로 85 110동 103호(센텀Q시티아파트),35.23018517,128.8455887,ok
361,경상남도 김해시 율하5로 99 원메이저 힐스테이트 관리동 1층,35.16705226,128.8280434,ok
362,경상남도 김해시 주촌면 선지로 85 센터Q시티아파트 키즈존(어린이집),35.23018517,128.8455887,ok
363,경상남도 김해시 진영읍 김해대로 258 한림풀에버 1단지 103동 1층 관리동,35.30670009,128.7187376,ok
364,경상남도 김해시 진영읍 진산대로 59 중흥s클래스에코시티 관리동,35.31012664,128.7203533,ok
365,경상남도 김해시 흥동로 131 ,35.22222962,128.8631043,ok
366,경상남도 김해시 율하6로 17 율하자이힐스테이트 관리동,35.17014948,128.8269291,ok
367,경상남도 밀양시 무안면 문화중앙길 15 도담토리어린이집,35.46733134,128.6497905,ok
368,경상남도 거제시 상동5길 117-50 벽산e-솔렌스힐3차아파트 내 복리동,34.8585591,128.6345762,ok
369,경상남도 거제시 수양1길 85-21 ,34.89535979,128.6561989,ok
370,"경상남도 거제시 성산로 33 (옥포동, e편한세상 옥포아파트 1단지)",34.89812548,128.6953228,ok
371,"경상남도 거제시 상동5길 100 107-103(거제더샵블루시티, 상문동)",34.86398317,128.6287064,ok
372,경상남도 거제시 능포로2길 38 102동 106호,34.87619518,128.7349403,ok
373,경상남도 거제시 성산로 169 복리동,34.90992553,128.699469,ok
374,경상남도 거제시 상동5길 100 복리동,34.86199477,128.6287875,ok
375,"경상남도 거제시 상동1길 15-9 304동 105호(상동동, 덕산3차베스트타운)",34.8631142,128.6395927,ok
376,경상남도 거제시 문동1길 42 거제센트럴푸르지오아파트 복리동,34.86048857,128.6423863,ok
377,경상남도 거제시 상동3길 15 힐스테이트거제아파트 108동,34.866522,128.6379748,ok
378,경상남도 거제시 아주로3길 25 ,34.86472819,128.690928,ok
379,"경상남도 거제시 수양로 110 202동(양정동,거제2차IPARK1단지)",34.86689261,128.6499314,ok
380,"경상남도 거제시 수양로 110 305동(양정동,거제2차IPARK2단지)",34.86689261,128.6499314,ok
381,경상남도 거제시 상동5길 117-55 405동 1층(벽산블루밍4차)관리동,34.86166358,128.6351973,ok
382,경상남도 양산시 평산로 101-20 삼한사랑채 관리동 어린이집,35.38109462,129.143505,ok
383,경상남도 양산시 물금읍 백호로 156 102동 1층,35.31183158,129.0081095,ok
384,경상남도 양산시 동면 금산5길 55 ,35.31032869,129.0289642,ok
385,경상남도 양산시 물금읍 청운로 42 관리동(양산LH천년나무아파트),35.30738278,128.9919483,ok
386,경상남도 양산시 물금읍 물금로 223 양산시육아종합지원센터,35.32204642,129.0026766,ok
387,경상남도 양산시 회현1길 48 일동미라주아파트 관리동,35.34558735,129.0233389,ok
388,경상남도 양산시 양산대로 1111 ,35.36826244,129.042983,ok
389,경상남도 양산시 신덕계3길 36 ,35.37410347,129.1621253,ok
390,경상남도 양산시 덕계회야길 16 ,35.37145673,129.1454128,ok
391,경상남도 창녕군 창녕읍 조산1길 23 넥센타이어 사원아파트 내,35.53869239,128.4852939,ok
392,경상남도 함양군 마천면 덕전길 6 ,35.39432083,127.6596411,ok
393,경상남도 거창군 거창읍 송정2길 33 거창푸르지오어린이집,35.68209072,127.89957,ok
394,경상북도 포항시 북구 천마로 123 삼구3차 301동 106호,36.08859007,129.395153,ok
395,경상북도 포항시 남구 상도남로 11 자이아파트 관리동,36.00827524,129.3424933,ok
396,경상북도 포항시 북구 흥해읍 초곡지구로58번길 65-9 초곡리슈빌 관리동,36.0959928,129.333161,ok
397,경상북도 경주시 백률로 7 관리동 내 (푸르지오아파트),35.85691803,129.2207508,ok
398,경상북도 경주시 유림로 23 황성KCC스위첸아파트 관리동 내,35.8737365,129.2150771,ok
399,경상북도 경주시 현진앞3길 46 ,35.88301084,129.2198562,ok
400,경상북도 경주시 용담로 548 현곡센트럴푸르지오,35.89224818,129.174456,ok
401,"경상북도 김천시 용전1로 9 101동 103호(율곡동,엠코타운 더 플래닛)",36.11905249,128.1837107,ok
402,"경상북도 김천시 용전1로 9 107동 101호(율곡동, 엠코타운 더 플래닛)",36.11905249,128.1837107,ok
403,"경상북도 김천시 용전1로 9 109동 105호(율곡동, 엠코타운 더 플래닛)",36.11905249,128.1837107,ok
404,"경상북도 김천시 용전3로 10 303동, 104호(율곡동, LH천년나무 3단지)",36.12074451,128.1915803,ok
405,"경상북도 김천시 용전3로 10 303동 105호(율곡동,LH천년나무 3단지)",36.12074451,128.1915803,ok
406,"경상북도 김천시 용전3로 10 302동 104호(율곡동, LH천년나무 3단지)",36.12074451,128.1915803,ok
407,경상북도 김천시 용전4로4길 23-6 ,36.1247023,128.1953153,ok
408,경상북도 김천시 혁신4로 46 103동 101호(한신휴플러스),36.11987874,128.1843502,ok
409,경상북도 김천시 혁신로 269 한국전력기술(주),36.12469285,128.1788742,ok
410,경상북도 김천시 용전1로1길 25 ,36.1222568,128.1896072,ok
411,경상북도 김천시 혁신8로 177 ,36.12631066,128.1989236,ok
412,"경상북도 구미시 산호대로 925 관리동(옥계동, 우미린2차아파트)",36.13833395,128.4308104,ok
413,"경상북도 구미시 왕산로 28-12 106동 103호(임은동, 삼도뷰엔빌W)",36.0858432,128.3634583,ok
414,"경상북도 구미시 해마루공원로 80 106동 203호(옥계동, 중흥S-클래스)",36.14060472,128.4295182,ok
415,경상북도 구미시 백산로4길 34 (송정동),36.11818911,128.3415797,ok
416,경상북도 구미시 신당3로 15 (산동면),36.15745161,128.4325348,ok
417,경상북도 구미시 산호대로 955 ,36.13923372,128.4344709,ok
418,경상북도 구미시 해마루공원로 115 호반베르디움 엘리트시티 관리동,36.14461916,128.4278857,ok
419,"경상북도 구미시 신당3로 15 205동 101호(산동면, 골드디움아파트)",36.15745161,128.4325348,ok
420,경상북도 영주시 두서길 73 ,36.83060159,128.618983,ok
421,경상북도 영천시 완산5길 25 ,35.96744275,128.9416459,ok
422,경상북도 상주시 함창읍 함령길 138 ,36.57290283,128.1827437,ok
423,경상북도 경산시 압량읍 압독2로 37 우미린아파트 105동 102호,35.84116766,128.7664658,ok
424,경상북도 경산시 남매로 158 ,35.82511247,128.7432823,ok
425,경상북도 경산시 삼성현로35길 18 정원어린이집,35.81843082,128.7235511,ok
426,경상북도 경산시 경청로222길 34 삼도뷰엔빌W 아파트 관리동 어린이집,35.80248724,128.7423029,ok
427,경상북도 의성군 안계면 서부로 1692-6 디딤어린이집,36.38707073,128.4403934,ok
428,경상북도 영양군 입암면 신구1길 8 ,36.59175633,129.090327,ok
429,경상북도 칠곡군 지천면 상지1길 38-17 ,35.96101966,128.4949602,ok
430,경상북도 칠곡군 석적읍 남율로9길 61 효성해링턴플레이스 2단지 보육시설,36.06876628,128.4041559,ok
431,경상북도 칠곡군 석적읍 남율로9길 81 3단지 보육시설,36.06974543,128.408535,ok
432,경상북도 칠곡군 왜관읍 달오2길 37 관리동 그라미센텀어린이집,35.97781753,128.4032581,ok
433,경상북도 울진군 근남면 울진북로 151-3 ,36.96318578,129.395391,ok
434,광주광역시 서구 월드컵4강로 101 ,35.14562243,126.8722836,ok
435,광주광역시 서구 원마륵2길 20 ,35.1454192,126.837866,ok
436,광주광역시 서구 월산로268번길 9 선한어린이집,35.15992851,126.8893877,ok
437,광주광역시 서구 상무버들로40번길 14 상무버들마을1주공아파트 관리동,35.16509782,126.8613632,ok
438,"광주광역시 남구 봉선로 42 (주월동, 봉선로남해오네뜨)",35.129462,126.9028942,ok
439,광주광역시 북구 하서로 290-51 (헤아림요양병원),35.20160295,126.8807213,ok
440,광주광역시 북구 용봉로138번길 11 ,35.17310048,126.9117573,ok
441,광주광역시 북구 군왕로 17 풍향동 교대금호어울림 관리동,35.16334704,126.9282298,ok
442,광주광역시 북구 군왕로 295 각화힐스테이트 관리동,35.18660427,126.9375953,ok
443,광주광역시 북구 상촌로43번길 30 일신아파트2차 복리시설,35.21231705,126.8803565,ok
444,"광주광역시 광산구 용아로379번길 25-2 산정동, 산정빛여울채아파트 관리동",35.17551176,126.8031791,ok
445,"광주광역시 광산구 풍영로330번길 15 (장덕동, 고실마을휴먼시아8단지 관리동1층)",35.20204144,126.8157011,ok
446,대구광역시 중구 국채보상로140길 24-7(동인동 2가) ,35.86766684,128.6058407,ok
447,"대구광역시 중구 달구벌대로 1950 106동 1호(남산동, 남산그린타운)",35.86287963,128.576747,ok
448,대구광역시 동구 송라로28길 14 ,35.87898504,128.6159147,ok
449,대구광역시 서구 국채보상로34길 12 중리롯데캐슬 120동(중리동),35.86542048,128.5476699,ok
450,대구광역시 남구 성당로34길 36 ,35.8473436,128.5707877,ok
451,대구광역시 북구 동북로 345 복현푸르지오 101동 103호,35.89258902,128.627348,ok
452,대구광역시 북구 동북로 345 복현푸르지오아파트 111동 102호,35.89258902,128.627348,ok
453,대구광역시 북구 내곡로 15 금호LH천년나무8단지 내,35.89887693,128.5080694,ok
454,대구광역시 북구 호국로 807-3 칠곡경북대학교 병원 옆,35.95693414,128.5659223,ok
455,대구광역시 북구 칠곡중앙대로52길 38 대구부광교회 내 1층,35.92184932,128.5495928,ok
456,대구광역시 북구 옥산로 69-14 ,35.88619156,128.5838251,ok
457,"대구광역시 북구 한강로 17 관리동(사수동,금호서한이다음)",35.89738101,128.5121045,ok
458,대구광역시 북구 동북로서37길 10 (산격동),35.89959298,128.612314,ok
459,"대구광역시 북구 매전로4길 32 (매천동,한신더휴 웨스턴팰리스)",35.90623019,128.5418993,ok
460,"대구광역시 북구 매전로4길 31 (매천동,한신더휴이스턴팰리스)",35.90596173,128.5440034,ok
461,대구광역시 수성구 청수로 274 (황금동),35.83978261,128.6375565,ok
462,"대구광역시 달서구 월성로 132 (월성동, 이편한세상월배아파트)",35.82799291,128.5209136,ok
463,"대구광역시 달서구 갈밭남로 17 (대곡동, 수목원호정포레스트)",35.79925587,128.5305488,ok
464,대구광역시 달서구 달구벌대로 1035 (신당동),35.85395649,128.4802258,ok
465,"대구광역시 달서구 한실로6길 123 (대곡동, 수목원서한이다음아파트)",35.79664514,128.5294704,ok
466,"대구광역시 달서구 송현로 113 (송현동, 본동주공아파트)",35.82712816,128.543325,ok
467,"대구광역시 달서구 갈밭남로 64 (대곡동, 수목원풍경그린)",35.80154854,128.5351326,ok
468,대구광역시 달성군 현풍면 테크노상업로 33 서한이다음아파트 내,35.69224409,128.4523227,ok
469,대구광역시 달성군 현풍면 테크노북로2길 30 대구테크노폴리스천년나무2단지(LH),35.69115192,128.4517938,ok
470,대구광역시 달성군 현풍면 테크노북로4길 11 남해오네뜨1차 108동(뒤),35.69630453,128.4554441,ok
471,대구광역시 달성군 유가면 테크노북로9길 42 대구테크노 원 힐데스하임 107동 1층,35.69327299,128.4673223,ok
472,대구광역시 달성군 유가읍 테크노북로6길 26 ,35.69474273,128.460588,ok
473,대구광역시 달성군 현풍읍 테크노중앙대로 333 비슬빌리지 302동 1층,35.70563776,128.4550107,ok
474,대구광역시 달성군 다사읍 다사로 50 ,35.8643459,128.4603528,ok
475,대구광역시 달성군 현풍읍 국가산단대로70길 41 ,35.66279566,128.4212558,ok
476,대구광역시 달성군 옥포읍 금계길 12 ,35.7859965,128.4475089,ok
477,대구광역시 달성군 유가읍 테크노대로6길 20 ,35.68665514,128.4657617,ok
478,대전광역시 동구 산내로1257번길 40 석천들마을아파트 관리동 1층(낭월동),36.27824664,127.4674643,ok
479,"대전광역시 동구 동대전로46번길 30 (신흥동, 이스트시티1단지 관리동)",36.32713782,127.4378498,ok
480,"대전광역시 동구 새울로 19 (판암동, 삼정그린코아포레스트 2단지 관리동)",36.32099432,127.4620289,ok
481,대전광역시 동구 성남로 16-1 (성남동),36.34376286,127.4320361,ok
482,대전광역시 중구 유천로 86 22-2,36.32015633,127.3970464,ok
483,대전광역시 중구 계백로1646번길 97 (유천동),36.31517375,127.4023706,ok
484,대전광역시 서구 도안동로 77 도안18단지 린풀하우스아파트(도안동),36.31139601,127.3483834,ok
485,대전광역시 서구 청사로 189 정부대전청사,36.36268299,127.3849039,ok
486,"대전광역시 서구 문정로 41 (탄방동, SK텔레콤빌딩 3층)",36.34716014,127.3841024,ok
487,대전광역시 서구 용문로 19 시온빌딩 1층,36.34068413,127.3865,ok
488,"대전광역시 서구 관저남로 80 (관저동,어반힐스)",36.29555908,127.3432406,ok
489,대전광역시 서구 관저서로 19 관저더샵1차아파트 관리동,36.29361202,127.3295786,ok
490,대전광역시 서구 복수중로 30 관리동,36.30641091,127.3768848,ok
491,"대전광역시 유성구 죽동로 251 (죽동, 푸르지오아파트 관리동)",36.37401412,127.3387321,ok
492,대전광역시 유성구 지족동로142번길 32 (지족동),36.38699071,127.3100671,ok
493,"대전광역시 유성구 지족로190번길 36 103동 101호(지족동, 트리풀시티포레)",36.38111648,127.3047908,ok
494,"대전광역시 유성구 죽동로 321 보육동 (죽동, 금성백조예미지)",36.3688269,127.3354355,ok
495,"대전광역시 유성구 죽동로 39 (죽동, 대원칸타빌관리동)",36.37108527,127.3329103,ok
496,대전광역시 유성구 가정로 83-1 ,36.38559743,127.352647,ok
497,대전광역시 유성구 대학로 417 (구성동) 금강유역환경청어린이집,36.37303865,127.3742038,ok
498,대전광역시 유성구 학하중앙로 60 오투그란데 유성숲 507동 103호,36.34572903,127.3008849,ok
499,"대전광역시 대덕구 대덕대로 1587 104동 102호(석봉동, 금강로하스엘크루)",36.45344744,127.4220936,ok
500,대전광역시 대덕구 비래서로25번길 53 (비래동),36.35695778,127.4485373,ok
501,부산광역시 중구 대청동4가 중구로 121 (메리놀병원),35.10765062,129.0329882,ok
502,부산광역시 동구 범일일길 40 ,35.14049848,129.0582728,ok
503,"부산광역시 동구 홍곡로 50 초량동, e편한세상부산항아파트",35.12309802,129.0399773,ok
504,부산광역시 영도구 와치로 233 절영아파트 관리동 1층,35.07618468,129.0673657,ok
505,부산광역시 영도구 절영로 524 롯데캐슬블루오션 아파트 관리동(1층),35.07284532,129.0737115,ok
506,부산광역시 부산진구 엄광로 95 ,35.14858384,129.0262846,ok
507,"부산광역시 부산진구 엄광로 68 102동 103호(개금동, 벽산아파트)",35.14661344,129.0269894,ok
508,"부산광역시 부산진구 가야대로 450 (개금동, 금강펜테리움더스퀘어아파트)",35.15283833,129.0212272,ok
509,"부산광역시 부산진구 신천대로197번길 15 102-203(당감동, 서면2차봄여름가을겨울)",35.15907733,129.0496007,ok
510,부산광역시 동래구 쇠미로17번길 8 부산경찰청어린이집,35.19587217,129.0535,ok
511,부산광역시 동래구 반송로 164 부산 동래역행복주택,35.19594095,129.0941739,ok
512,"부산광역시 남구 용소로 45 C14 부경대학교어린이집(대연동, 부경대학교)",35.13117521,129.1048655,ok
513,부산광역시 남구 용호로232번길 25-14 (용호동),35.11043048,129.1092126,ok
514,부산광역시 남구 문현금융로 40 부산국제금융센터 203호 (문현동),35.14649173,129.0658548,ok
515,부산광역시 남구 수영로 261 SK뷰힐스관리동,35.13824172,129.0934303,ok
516,부산광역시 남구 황령대로319번가길 190-6 대우그린1차아파트 입구,35.15109408,129.0890064,ok
517,부산광역시 북구 금곡대로 166 롯데캐슬카이저 104동과 105동 사이,35.22636032,129.0122101,ok
518,부산광역시 북구 효열로 135 동원역삼정그린코아아파트 107동,35.25803645,129.0141872,ok
519,부산광역시 북구 화명대로 68 e편한세상 화명힐스아파트 관리동,35.23414602,129.0140883,ok
520,부산광역시 북구 상학로 35 금정산LH뉴웰시티 관리동,35.21503953,129.0372149,ok
521,부산광역시 북구 만덕1로104번가길 37 ,35.21594205,129.0263505,ok
522,부산광역시 북구 화명대로 110 ,35.23505945,129.0204005,ok
523,부산광역시 해운대구 우동1로 9-28 상가1층,35.16297027,129.1550189,ok
524,"부산광역시 해운대구 해운대로 663 (우동, 해운대비스타동원아파트)",35.16592029,129.1621696,ok
525,"부산광역시 해운대구 삼어로133번나길 17 (반여동, 센텀트루엘아파트)",35.20763582,129.1186581,ok
526,부산광역시 해운대구 좌동순환로433번길 30 104동 1층(해운대힐스테이트위브아파트),35.1608372,129.1777699,ok
527,"부산광역시 해운대구 해운대로161번길 12 (재송동, 센텀동부센트레빌아파트)",35.18376594,129.1243697,ok
528,"부산광역시 해운대구 해운대로61번길 73 관리동 (반여동, 해운대더샾그린)",35.1954858,129.1262681,ok
529,부산광역시 사하구 낙동대로550번길 37 한림생활관 승학2관 지하1층,35.11880939,128.968085,ok
530,부산광역시 사하구 괴정로 267 ,35.09704245,128.9905368,ok
531,부산광역시 금정구 금강로 324 (장전동),35.2368201,129.086715,ok
532,부산광역시 금정구 중리2길 16-21 (금성동),35.25188968,129.058335,ok
533,"부산광역시 강서구 명지국제5로 90 207동1층(명지1동, 중흥S클래스 에듀오션)",35.10127001,128.9208551,ok
534,"부산광역시 연제구 안연로 33 106동(연산동, 더샵파크시티아파트)",35.19202678,129.0955342,ok
535,"부산광역시 연산구 거제대로124번길 22 (거제동, 연제구 육아종합지원센터)",35.17905799,129.0702788,ok
536,부산광역시 연제구 좌수영로 225 203동(연산동 센텀리버 SK VIEW 아파트),35.183774,129.1137205,ok
537,"부산광역시 연제구 월드컵대로 55 연산동, 연제롯데캐슬앤데시앙",35.18040366,129.083414,ok
538,"부산광역시 연제구 연수로 130 (연산동, 연산더샵)",35.17440092,129.0843959,ok
539,부산광역시 연제구 연제로 30 시청역 비스타동원,35.17926573,129.0769594,ok
540,부산광역시 수영구 광안로35번길 9 ,35.15601523,129.1161825,ok
541,부산광역시 사상구 덕상로 27 (덕포2동),35.17387411,128.9895659,ok
542,부산광역시 기장군 정관읍 정관로 350 이지더원3차 304동 104호,35.33581448,129.1643702,ok
543,부산광역시 기장군 정관읍 방곡로 29 이지더원5차 502동 101호,35.32694575,129.1878804,ok
544,부산광역시 기장군 해빛2로 21 관리동 어린이집,35.26905844,129.2261841,ok
545,부산광역시 기장군 해빛2로 24 관리동 어린이집,35.26869406,129.2271321,ok
546,부산광역시 기장군 정관읍 곰내길 654-152 ,35.31284822,129.173166,ok
547,경기도 구리시 인창1로 39-9 ,37.60681516,127.1306834,ok
548,세종특별자치시  보람로 77 ,36.51540546,127.2617462,ok
549,세종특별자치시  도움3로 160 가재마을아파트 417동 101호,36.50817453,127.2429503,ok
550,세종특별자치시  도움3로 159 가재마을3단지 관리동,36.50393459,127.2437483,ok
551,세종특별자치시  달빛로 77 ,36.50555668,127.2484212,ok
552,세종특별자치시  만남로 187 가락마을16단지관리동,36.51554572,127.2388349,ok
553,"세종특별자치시  마음안1로 167 1702동 102호(고운동, 가락마을17단지)",36.51845163,127.2373206,ok
554,세종특별자치시  달빛1로 201 범지기마을3단지306동101호,36.51854604,127.2440783,ok
555,세종특별자치시  달빛로 80 가재마을 12단지 관리동,36.50486596,127.2530837,ok
556,세종특별자치시  연서면 가마골길 136 ,36.5582571,127.2751257,ok
557,세종특별자치시  절재로 13 103동 101호,36.5104204,127.2421036,ok
558,세종특별자치시  보람로 15 도램마을9단지,36.51063124,127.2635877,ok
559,"세종특별자치시  호려울로 42 보람동, 복합커뮤니티센터 내 1층",36.47874677,127.2904649,ok
560,세종특별자치시  도움1로 145 LH임대아파트 관리동,36.50154104,127.2414435,ok
561,세종특별자치시  마음안1로 167 가락마을17단지 관리동,36.51845163,127.2373206,ok
562,세종특별자치시  보듬1로 12 도램마을7단지 관리동,36.50996039,127.2599504,ok
563,세종특별자치시  장군면 장척로 349-11 ,36.49333469,127.200987,ok
564,"세종특별자치시  국책연구원1로 15 새샘마을 9단지, 관리동",36.49101864,127.2998982,ok
565,"세종특별자치시  새롬중앙로 19 511동101호(새롬동, 새뜸마을5단지)",36.48359059,127.2523479,ok
566,"세종특별자치시  남세종로 441 506동 105호(보람동,호려울마을5단지)",36.47692465,127.2904564,ok
567,세종특별자치시  전의면 산단길 22-10 전의일반산업단지 내,36.69997801,127.2117931,ok
568,"세종특별자치시  대평1길 10 대평동3-1생활권, 복합커뮤니티센터 내 1층",36.47082783,127.2790606,ok
569,"세종특별자치시  남세종로 503 105동 101호(보람동, 호려울마을1단지)",36.47500243,127.2861464,ok
570,세종특별자치시  보람동로 14 호려울마을8단지 관리동,36.47757066,127.2962608,ok
571,"세종특별자치시  새롬북로 13 관리동(새롬동, 새뜸마을4단지)",36.48650538,127.2458755,ok
572,"세종특별자치시  다정북로 110 209동 103호(다정동, 가온마을2단지",36.49578199,127.2435873,ok
573,"세종특별자치시  새롬남로 17 관리동(새롬동, 새뜸마을2단지)",36.48395709,127.2486534,ok
574,세종특별자치시  새롬남로 102 새뜸마을 12단지 관리동,36.48514275,127.2568631,ok
575,세종특별자치시  새롬중앙로 20 새롬동 새뜸마을 8단지 관리동,36.48361351,127.2536928,ok
576,세종특별자치시  다정북로 109 317동 104호(가온마을 3단지),36.49655699,127.2422971,ok
577,세종특별자치시  다정북로 109 306동 102호,36.49655699,127.2422971,ok
578,세종특별자치시  다정북로 109 322동 103호,36.49655699,127.2422971,ok
579,세종특별자치시  마음로 64 고운동 남측 복합커뮤니티센터,36.50497406,127.2353641,ok
580,세종특별자치시  보람1길 12 관리동 1층 어린이집,36.47558498,127.2838291,ok
581,"세종특별자치시  남세종로 357 106동 103호(소담동, 새샘마을1단지)",36.48032904,127.2988139,ok
582,"세종특별자치시  한누리대로 2023 소담동 3-3생활권, 복합커뮤니티센터 내 1층",36.48407359,127.3003683,ok
583,세종특별자치시  보람로 15 ,36.51063124,127.2635877,ok
584,세종특별자치시  남세종로 441 호려울마을 5단지 관리동,36.47692465,127.2904564,ok
585,세종특별자치시  남세종로 469 호려울마을 4단지 관리동,36.47648915,127.2894404,ok
586,세종특별자치시  대평1길 38 관리동(해들마을 3단지),36.47119663,127.2776911,ok
587,세종특별자치시  다솜3로 15 ,36.49703219,127.2662659,ok
588,세종특별자치시  다정남로 123 가온마을12단지 관리동,36.49287838,127.2548443,ok
589,세종특별자치시  새롬중앙로 19 새뜸마을5단지 관리동,36.48359059,127.2523479,ok
590,세종특별자치시  보람1길 12 호려울마을2단지 관리동,36.47558498,127.2838291,ok
591,세종특별자치시  달빛로 165 범지기마을8단지 관리동,36.5129216,127.2483919,ok
592,세종특별자치시  대평1길 38 해들마을3단지 관리동,36.47119663,127.2776911,ok
593,세종특별자치시  시청대로 598 605동 103호,36.49394094,127.3183204,ok
594,세종특별자치시  누리로 27 첫마을6단지 관리동,36.47578695,127.2515195,ok
595,세종특별자치시  다정중앙로 77 가온마을6단지 관리동,36.49787742,127.2483213,ok
596,세종특별자치시  다정북로 183 가온마을9단지 관리동,36.49614456,127.2513894,ok
597,세종특별자치시  반곡로 15 수루배마을3단지 관리동,36.49907154,127.3083156,ok
598,세종특별자치시  반곡2길 9 수루배마을5단지 관리동,36.49661315,127.3119331,ok
599,세종특별자치시  소담1로 17 ,36.4841533,127.301672,ok
600,울산광역시 중구 성안로 112 ,35.57123328,129.3153502,ok
601,울산광역시 중구 종가로 451 ,35.56746339,129.3255566,ok
602,울산광역시 중구 단장골길 1 ,35.56921542,129.3321804,ok
603,"울산광역시 중구 약사로 20 311동 401호(울산약사더샵, 약사동)",35.5694768,129.3365856,ok
604,울산광역시 중구 종가로 323 ,35.5654492,129.3119059,ok
605,울산광역시 중구 종가로 730 에일린의 뜰 2차 아파트,35.58633622,129.3452151,ok
606,울산광역시 남구 돋질로261번길 11 ,35.54483399,129.3328836,ok
607,"울산광역시 남구 대공원로 157 B동 106호(신정동,효성사택)",35.52955898,129.297135,ok
608,울산광역시 남구 문수로480번길 23 ,35.53041674,129.3055673,ok
609,울산광역시 남구 번영로173번길 15-1 ,35.53995319,129.324159,ok
610,울산광역시 동구 화진길 65 2층중1층,35.49112118,129.4216219,ok
611,"울산광역시 동구 봉수로 450 104동101호(서부동, 성원쌍떼빌아파트)",35.5254839,129.4251592,ok
612,"울산광역시 동구 화진길 100 (화정동, 엠코타운이스턴베이)",35.49377252,129.4229354,ok
613,"울산광역시 북구 박상진3로 25 관리동(송정동,송정한양수자인)",35.60321516,129.3634759,ok
614,"울산광역시 북구 화산로 104 관리동(송정동,반도유보라아이비파크)",35.60151097,129.3664285,ok
615,울산광역시 북구 중산로 47 유-스타시티일동미라주더스타2단지 관리동(중산동),35.65232668,129.3543677,ok
616,"울산광역시 북구 화산로 75 관리동(화봉동,송정금강펜테리움테라스1차)",35.59745034,129.3650146,ok
617,"울산광역시 북구 중산로 45 (중산동,U-스타시티 일동미라주 더 스타 3단지)",35.65364417,129.3530321,ok
618,"울산광역시 북구 산하중앙1로 6 (산하동,블루마시티 KCC스위첸)",35.62570634,129.4410455,ok
619,"울산광역시 북구 박상진4로 72 (화봉동,지웰푸르지오)",35.60026964,129.3691401,ok
620,"울산광역시 북구 박상진3로 55 (송정동,울산송정금강펜테이룸그린테라스2차)",35.60412946,129.3660131,ok
621,울산광역시 울주군 삼남면 작괘들길 41 경동우신알프스타운 관리동,35.54413234,129.1055528,ok
622,울산광역시 울주군 청량읍 군청로 1 울주군청 별관 1층,35.5219071,129.2413352,ok
623,울산광역시 울주군 온양읍 망양길 50 온양e편한세상아파트 관리동,35.45280663,129.2968513,ok
624,"인천광역시 중구 두미포로 112 109동 102호(중산동, e편한세상 영종국제도시 오션하임)",37.49426601,126.5665962,ok
625,"인천광역시 중구 두미포로 112 (중산동, e편한세상 영종국제도시오션하임)",37.49426601,126.5665962,ok
626,인천광역시 중구 은하수로 380 ,37.49259029,126.5527811,ok
627,인천광역시 중구 영종대로252번길 38 관리동 어린이집,37.48688952,126.4990592,ok
628,인천광역시 중구 은하수로 412 108동 101호,37.48948787,126.5496027,ok
629,"인천광역시 동구 송미로 6 110동 102호(송림동, 풍림아이원아파트)",37.48225361,126.6506481,ok
630,인천광역시 동구 방축로 217 ,37.47881528,126.6686645,ok
631,인천광역시 미추홀구 용정공원로 33 103동101호 (용현동.sk스카이뷰),37.45201495,126.6450629,ok
632,인천광역시 미추홀구 숙골로112번길 11 e편한세상 도화5단지 관리동 어린이집(도화동),37.4740307,126.6624979,ok
633,인천광역시 미추홀구 낙섬동로 135 LH미추홀퍼스트 관리동 어린이집,37.4565753,126.6447297,ok
634,인천광역시 미추홀구 매소홀로 120 옹진군청,37.44657047,126.6367454,ok
635,인천광역시 연수구 송도문화로84번길 84 베르디움퍼스트아파트 104동 105호,37.36973764,126.6540568,ok
636,인천광역시 연수구 컨벤시아대로252번길 50 송도더샵퍼스트파크 1404동201호,37.38800888,126.6337363,ok
637,"인천광역시 연수구 컨벤시아대로252번길 30 관리동(송도동,송도더샵퍼스트파크F15BL)",37.38685022,126.6353864,ok
638,인천광역시 연수구 독배로 68 유진메디타워 301호,37.42667037,126.6451994,ok
639,인천광역시 연수구 송도미래로 30 디동 101호,37.36664055,126.6472802,ok
640,인천광역시 연수구 송도과학로27번길 15 ,37.3854252,126.6616484,ok
641,인천광역시 연수구 능허대로446번길 12 국공립다숲어린이집,37.40120333,126.6641585,ok
642,인천광역시 연수구 능허대로 343 국공립파크레인어린이집,37.40859368,126.6567949,ok
643,인천광역시 연수구 랜드마크로 19 국공립에스케이뷰도담어린이집,37.41411745,126.6249716,ok
644,인천광역시 연수구 청능대로 124 116동 102호,37.41069404,126.6772386,ok
645,"인천광역시 남동구 소래역남로 40 관리동1층(논현동,에코메트로3차더타워아파트)",37.40018486,126.7322719,ok
646,인천광역시 남동구 남동대로 769 1층(구월동),37.45118183,126.7075164,ok
647,"인천광역시 남동구 선수촌로 8 805동102호(구월동,구월아시아드선수촌8단지아파트)",37.44109427,126.7169084,ok
648,인천광역시 남동구 운연천로 11 서창행복주택,37.43095036,126.756275,ok
649,인천광역시 남동구 인주대로 585 2층,37.4510261,126.7019835,ok
650,"인천광역시 부평구 갈월동로29번길 40-3 1층,(갈산동)",37.51000383,126.7275631,ok
651,인천광역시 부평구 아트센터로44번길 15-12 동암마을센터 1층,37.47255507,126.703915,ok
652,"인천광역시 계양구 효서로 381 213동 104호(작전동, 현대2차아파트)",37.52800661,126.737781,ok
653,인천광역시 서구 경명대로 322 관리동 2층,37.55374959,126.64261,ok
654,인천광역시 서구 보석로18번길 24 1층,37.52166704,126.6267991,ok
655,"인천광역시 서구 비지니스로 166 617동 104호(청라동, 청라국제도시대광로제비앙)",37.53786016,126.6220537,ok
656,인천광역시 서구 건지로334번길 17-7 국공립가좌3동하나어린이집,37.49656092,126.6793104,ok
657,인천광역시 서구 봉오재2로 13 103동 104호 (엘에이치루원더퍼스트),37.53346514,126.6651474,ok
658,인천광역시 서구 청라라임로 85 린스트라우스 102동 1층 관리동어린이집,37.53466394,126.6526145,ok
659,"인천광역시 서구 청라한내로 132 647동 102호(청라3동, 청라한양수자인레이크블루)",37.53844224,126.6310394,ok
660,인천광역시 강화군 강화읍 강화대로 394 ,37.74614827,126.4877069,ok
661,전라남도 목포시 영산로565번길 23 상동 광신프로그래스 내,34.81594503,126.417116,ok
662,전라남도 목포시 양을로 42 LH천년나무아파트 내,34.80124204,126.3809782,ok
663,전라남도 목포시 청호로219번길 51 707동105호(신안실크밸리),34.8059998,126.3664975,ok
664,전라남도 목포시 상동로 33 현대아파트 단지내 현대어린이집,34.81153602,126.4146709,ok
665,전라남도 여수시 웅천중앙로 47 웅천 지웰3단지 내,34.7496092,127.6717856,ok
666,"전라남도 여수시 무선로 27 선원동, 롯데케미칼 사택 내",34.76369726,127.6540669,ok
667,전라남도 여수시 소호5길 39 주은금호 3차,34.74342802,127.646336,ok
668,"전라남도 여수시 웅천남8로 24 (웅천동, 여수웅천꿈에그린1단지 관리동)",34.73862252,127.6803385,ok
669,"전라남도 여수시 웅천남8로 23 (웅천동, 여수웅천꿈에그린2단지)",34.74003774,127.6783471,ok
670,"전라남도 여수시 덕충안길 84 204동 1층(덕충동,시티프라디움2단지)",34.75355125,127.7443728,ok
671,전라남도 순천시 해룡면 매안로 162 행정복합타운 내,34.93662134,127.5481894,ok
672,전라남도 순천시 중앙로 255 ,34.96676128,127.4809231,ok
673,전라남도 순천시 오천7길 12 ,34.93471836,127.491787,ok
674,전라남도 순천시 용당삼산로 63 ,34.97827602,127.4865093,ok
675,전라남도 순천시 해룡면 좌야로 159-14 중흥9차 단지내,34.93808275,127.5442581,ok
676,전라남도 나주시 월정3길 17 LH 5단지 관리동,35.01197756,126.7926514,ok
677,전라남도 나주시 한빛로 61 우미린아파트,35.02758737,126.7792614,ok
678,"전라남도 나주시 그린로 328 101-102(빛가람동,빛가람 사랑으로 부영1단지아파트)",35.01694766,126.795134,ok
679,전라남도 나주시 그린로 328 부영1차 아파트내 보육시설,35.01698661,126.7965358,ok
680,전라남도 나주시 월정1길 10 영무예다음 102동 101호,35.01273677,126.7868621,ok
681,전라남도 나주시 우정로 77 중흥S클래스센트럴 1차 108동 103호,35.02397813,126.7878336,ok
682,전라남도 나주시 월정1길 20 영무예다음아파트 관리동,35.01328558,126.7852496,ok
683,"전라남도 나주시 중야1길 42 202동 103호 (빛가람동, LH2단지아파트)",35.01581723,126.7803343,ok
684,전라남도 나주시 송월18길 17 힐데스하임 관리동어린이집,35.02141364,126.7158943,ok
685,전라남도 나주시 송월18길 10 ,35.02033711,126.7151977,ok
686,전라남도 나주시 중야1길 37 대방엘리움 로얄카운티1차,35.01659377,126.7808341,ok
687,전라남도 나주시 중야1길 15 대방엘리움 2차,35.01743275,126.7778466,ok
688,전라남도 나주시 송월18길 17 ,35.02141364,126.7158943,ok
689,전라남도 광양시 광장로 70 212동 109호,34.93332294,127.6902699,ok
690,전라남도 광양시 광영로 141 109동 102호(현대아파트),34.96545345,127.7157634,ok
691,전라남도 광양시 광양읍 용강1길 12 창덕에버빌2차 관리동 2층,34.97260441,127.6119043,ok
692,"전라남도 광양시 중마로 210 (중동, 남양파크 관리동 1층)",34.94334001,127.6899422,ok
693,전라남도 광양시 광양읍 서산길 5 에르가아파트 상가동,34.96928365,127.5629579,ok
694,전라남도 구례군 구례읍 서시천로 58-11 ,35.213998,127.4688501,ok
695,전라남도 고흥군 고흥읍 두원로 24 하얀어린이집,34.60959109,127.279259,ok
696,전라남도 화순군 화순읍 부처샘길 5-1 ,35.06711379,126.9913573,ok
697,전라남도 영암군 삼호읍 공항로 21 ,34.76254885,126.3914596,ok
698,전라남도 영광군 홍농읍 상하길 120-1 ,35.40182726,126.4485598,ok
699,전라남도 신안군 흑산면 홍도1길 53 ,34.68544984,125.1923169,ok
700,전북특별자치도 전주시 완산구 효자동2가 우전로 180 세븐팰리스아파트 관리동,35.81023999,127.10195,ok
701,"전북특별자치도 전주시 덕진구 오공로 71 106동 104호(중동, 호반베르디움아파트)",35.83805049,127.0623046,ok
702,"전북특별자치도 전주시 덕진구 오공로 71 108동 103호(중동, 호반베르디움아파트)",35.83805049,127.0623046,ok
703,"전북특별자치도 전주시 덕진구 오공로 70 106동 105호(중동, 우미린 1차)",35.83548385,127.0622013,ok
704,전북특별자치도 전주시 완산구 효자동3가 유연로 180 전북지방경찰청 내,35.82426169,127.1050093,ok
705,전북특별자치도 전주시 완산구 평화동2가 평화9길 16 주민복지관 1층,35.78759469,127.138363,ok
706,전북특별자치도 전주시 덕진구 틀못4길 33 엘에이치아파트 관리동,35.84571737,127.0589507,ok
707,전북특별자치도 전주시 덕진구 기지로 180 ,35.837298,127.0721794,ok
708,전북특별자치도 전주시 덕진구 출판로 69 606동 관리동 보육시설(호반베르디움 더센트럴2),35.84002001,127.0612459,ok
709,전북특별자치도 전주시 덕진구 건지로 20 ,35.8479659,127.1410598,ok
710,전북특별자치도 전주시 덕진구 덕진동2가 경동로 19 관리동 보육시설 (하가오투그란데아파트),35.84431081,127.1079598,ok
711,"전북특별자치도 전주시 덕진구 틀못4길 33 관리동 보육시설(장동, 엘에이치이노팰리스아파트)",35.84571737,127.0589507,ok
712,전북특별자치도 전주시 덕진구 송천동1가 오송1길 37-17 송천KCC스위첸아파트 관리동 보육시설,35.86371745,127.1299848,ok
713,전북특별자치도 전주시 덕진구 송천동2가 세병로 85 502동 107호(에코시티 데시앙아파트),35.87211607,127.1325252,ok
714,전북특별자치도 전주시 덕진구 만성동로 16 103동 105호(LH퍼스트리움아파트),35.83850974,127.0746878,ok
715,"전북특별자치도 전주시 덕진구 만성로 181 109동 103호(만성동, 골드클래스)",35.84817845,127.0797068,ok
716,전북특별자치도 전주시 덕진구 송천동2가 세병로 85 에코시티데시앙5블럭아파트 관리동,35.87211607,127.1325252,ok
717,전북특별자치도 전주시 덕진구 송천동2가 세병로 42 에코시티더샵1차아파트 관리동,35.87285527,127.1284638,ok
718,전북특별자치도 전주시 덕진구 쪽구름로 111 반월동남해오네뜨하이뷰아파트 관리동,35.87320362,127.0728237,ok
719,전북특별자치도 전주시 덕진구 만성동로 48 만성동 제일풍경채아파트 관리동,35.83843122,127.077152,ok
720,전북특별자치도 전주시 덕진구 솔내7길 40-5 ,35.85904136,127.1258645,ok
721,전북특별자치도 전주시 덕진구 세병로 74 에코휴먼빌아파트 관리동,35.87130261,127.132022,ok
722,전북특별자치도 전주시 덕진구 세병로 184 에코시티 kcc스위첸아파트 관리동,35.88124386,127.1311227,ok
723,전북특별자치도 전주시 덕진구 가리내로 5 2층,35.83432416,127.1355375,ok
724,전북특별자치도 전주시 덕진구 가인로 33 전주지방법원 청사 1층,35.84251879,127.0748493,ok
725,전북특별자치도 군산시 수송1길 5 ,35.96002474,126.7148094,ok
726,전북특별자치도 군산시 미장남로 10 미장아이파크 104동 1층,35.96136141,126.725298,ok
727,"전북특별자치도 군산시 계산로 90 , 관리동(지곡동, 현대엠코아파트)",35.95145142,126.7140754,ok
728,전북특별자치도 군산시 미장13길 33 풍경채어린이집,35.96348124,126.7347278,ok
729,전북특별자치도 군산시 옥산면 월명로 45 관리동(군산엠코타운2차아파트),35.94767367,126.7150833,ok
730,전북특별자치도 군산시 신평길 16-9 선우빌딩 1층,35.95674556,126.7144536,ok
731,전북특별자치도 군산시 축동로 80 OCI군산공장 기숙사 1층 내,35.96688383,126.7109911,ok
732,전북특별자치도 군산시 문화2길 31-1 (문화동),35.9726459,126.7036842,ok
733,전북특별자치도 군산시 진포3길 31 ,35.97317496,126.7189083,ok
734,전북특별자치도 군산시 번영로 92 (경장동),35.96933879,126.7309863,ok
735,전북특별자치도 군산시 만줄길 17-20 ,35.98788051,126.7763309,ok
736,전북특별자치도 익산시 모현동2가 선화로1길 57-33 1층,35.95524288,126.9363111,ok
737,전북특별자치도 정읍시 수성2로 13-18 수성어린이집,35.58324029,126.8541375,ok
738,전북특별자치도 남원시 충정로 38 (동충동),35.41122049,127.3803648,ok
739,전북특별자치도 김제시 순동산단1길 23 희망찬어린이집,35.81980112,126.9248592,ok
740,전북특별자치도 완주군 삼례읍 웃삼례길 39-6 삼례2주공A 관리동 1층,35.91948992,127.0827855,ok
741,전북특별자치도 무주군 설천면 구천동로 785 ,35.90310384,127.7870523,ok
742,전북특별자치도 순창군 순창읍 장덕로 26 소화어린이집,35.3804403,127.1479866,ok
743,전북특별자치도 고창군 고창읍 전봉준로 47 아이캔 어린이집,35.4420238,126.687564,ok
744,제주특별자치도 제주시 첨단로 330 ,33.44233797,126.5714497,ok
745,제주특별자치도 제주시 구산로 63 (아라일동),33.48476475,126.5415256,ok
746,제주특별자치도 제주시 아란13길 15 아라동,33.46720852,126.545201,ok
747,제주특별자치도 제주시 우평로 318 204동 108호,33.48497872,126.4335175,ok
748,제주특별자치도 제주시 광양4길 32 ,33.501412,126.5251149,ok
749,제주특별자치도 제주시 화삼북로 87 ,33.51767682,126.5819555,ok
750,제주특별자치도 제주시 청풍길 8 ,33.52216612,126.5660187,ok
751,제주특별자치도 서귀포시 동홍서로 102 아이꿈터어린이집,33.25789968,126.5697295,ok
752,제주특별자치도 서귀포시 신동로 20 ,33.2501136,126.5127629,ok
753,제주특별자치도 서귀포시 신서로 55 ,33.25490649,126.504756,ok
754,제주특별자치도 서귀포시 서호남로 19-42 ,33.25406553,126.5173415,ok
755,충청남도 천안시 동남구 신흥1길 10 (신방동),36.77793922,127.1259133,ok
756,"충청남도 천안시 동남구 청수14로 13 106동 104호(청당동,청수한화꿈에그린)",36.7864886,127.1473616,ok
757,충청남도 천안시 동남구 통정8로 48-44 ,36.76981162,127.1330205,ok
758,충청남도 천안시 동남구 단대로 119 ,36.83595249,127.1652134,ok
759,충청남도 천안시 동남구 청수14로 77 (청당동),36.78584175,127.1545556,ok
760,충청남도 천안시 동남구 천안천공원5길 36-18 (영성동),36.79763507,127.1505525,ok
761,"충청남도 천안시 동남구 신부8길 21 (신부동,동문굿모닝힐 아파트 내)",36.81704323,127.1613101,ok
762,충청남도 천안시 서북구 3공단6로 33 차암동 한화스마일시티 204동 보육시설 관리동,36.84239669,127.1035567,ok
763,충청남도 천안시 서북구 불당23로 13 이안아파트 506동 104호,36.82098434,127.102157,ok
764,충청남도 천안시 서북구 한들3로 35-23 216동 보육시설,36.82439978,127.119233,ok
765,충청남도 천안시 서북구 백석로 17-34 ,36.82514001,127.1154243,ok
766,충청남도 천안시 서북구 3공단6로 85-27 e편한세상 1차 스마일시티 내 단지,36.84384744,127.1035951,ok
767,충청남도 천안시 서북구 3공단6로 125 스마일시티 e편한세상 2차 201-102,36.8466005,127.1084424,ok
768,충청남도 천안시 서북구 오성9길 10 (두정동),36.83330283,127.1283045,ok
769,"충청남도 천안시 서북구 불당24로 10 보육시설(불당동, 불당리더힐스아파트)",36.82271204,127.1025786,ok
770,충청남도 천안시 서북구 직산읍 4산단6길 89 ,36.86655548,127.1234595,ok
771,충청남도 천안시 서북구 3공단6로 127 차암어린이집,36.8463553,127.1092398,ok
772,충청남도 천안시 서북구 성성6로 111 레이크타운 푸르지오 보육시설(성성동),36.84251927,127.132246,ok
773,충청남도 천안시 서북구 불당21로 40 불당호반써밋플레이스 관리동,36.81300614,127.1045946,ok
774,"충청남도 천안시 서북구 성성6로 111 105동 101호(성성동, 레이크타운푸르지오)",36.84251927,127.132246,ok
775,충청남도 천안시 서북구 불당26로 50 관리동,36.81260179,127.1056415,ok
776,충청남도 천안시 서북구 성거읍 신월길 20 관리동(직산한화꿈에그린),36.87326373,127.1491519,ok
777,충청남도 공주시 관골2길 35 효성해링턴플레이스,36.47544564,127.1319683,ok
778,충청남도 아산시 남부로 370-15 ,36.77161039,127.023439,ok
779,충청남도 아산시 신창면 순천향로 22 ,36.76835151,126.9289365,ok
780,충청남도 아산시 모종남로22번길 11 302동 101호(캐슬어울림3단지),36.77950841,127.0219835,ok
781,충청남도 아산시 배방읍 북수로25번길 33 102동 103호(메이루즈아파트),36.77402419,127.0626218,ok
782,"충청남도 아산시 모종로22번길 7 (모종동,모종캐슬1단지 관리동)",36.78414832,127.0201211,ok
783,충청남도 아산시 둔포면 아산밸리중앙로 67 405동,36.92386449,127.0560864,ok
784,충청남도 아산시 둔포면 아산밸리남로 77 704동 104호(아산테크노밸리 이지더원7단지),36.92085275,127.0537677,ok
785,충청남도 아산시 둔포면 아산밸리남로 81 803동 102호(아산테크노밸리 이지더원8단지),36.92028007,127.0548393,ok
786,충청남도 아산시 어의정로 184 의무동어린이집,36.77451584,127.0166331,ok
787,충청남도 아산시 모종로 22 캐슬어울림2단지아파트 203동 1층,36.78407059,127.0193456,ok
788,충청남도 아산시 배방읍 공원로 69 아산배방업무4 행복주택아파트 의무동,36.79030256,127.0994168,ok
789,충청남도 아산시 둔포면 아산밸리남로 77 701동 내(아산테크노밸리이지더원7단지 의무동),36.92085275,127.0537677,ok
790,충청남도 아산시 둔포면 중앙공원로 43 ,36.91946563,127.058855,ok
791,충청남도 서산시 대산읍 물안1로 123 롯데케미칼사택 복지관3층,36.96790063,126.4249902,ok
792,충청남도 서산시 석림1로 77 ,36.77003374,126.4619614,ok
793,충청남도 서산시 고운로 275-14 ,36.78706379,126.4642318,ok
794,충청남도 서산시 성연면 성연3로 57-30 고운라피네아파트,36.82249479,126.4474331,ok
795,충청남도 서산시 서령로 157-27 꿈에그린아파트,36.79558824,126.4604877,ok
796,충청남도 서산시 성연4로 46 관리동(e편한세상),36.82106469,126.453387,ok
797,충청남도 논산시 시민로132번길 10 LH논산내동2 A-1BL 관리동어린이집,36.1795085,127.1020528,ok
798,충청남도 논산시 연무읍 득안대로 652 ,36.12796504,127.1038369,ok
799,충청남도 계룡시 대실남북로 177 ,36.25858679,127.2616163,ok
800,충청남도 부여군 규암면 수북로 14-16 코아루더퍼스트아파트 105동 1층,36.26955124,126.8863819,ok
801,충청남도 부여군 규암면 흥수로 878 휴엔하임아파트 202동 103호,36.2740542,126.8774978,ok
802,충청남도 예산군 삽교읍 수암천로 11 106동,36.66309323,126.6720931,ok
803,충청남도 태안군 태안읍 후곡로 16 (코아루아파트 관리동),36.75111774,126.295355,ok
804,충청남도 태안군 태안읍 동평로 16 새빛마을아파트 내,36.74677435,126.3090318,ok
805,충청남도 당진시 석문면 해명1로 200 천년나무 아파트 2단지 관리동,36.98105373,126.5875937,ok
806,충청남도 당진시 남부로 200 한성필하우스 106-102,36.88507079,126.6377784,ok
807,충청남도 당진시 송악읍 틀모시로 737 힐스테이트 당진2차 관리동,36.90181532,126.6908713,ok
808,충청북도 청주시 흥덕구 신성로66번길 25 ,36.65349883,127.4163129,ok
809,"충청북도 청주시 상당구 단재로 316 (방서동, 청주센트럴자이아파트 관리동)",36.6011279,127.5009678,ok
810,"충청북도 청주시 상당구 단재로 312 116동 103호(방서동, 방서중흥에스클래스)",36.60144927,127.500661,ok
811,"충청북도 청주시 상당구 2순환로 2031 (방서동, 청주하트리움리버파크 관리동)",36.59733234,127.5023115,ok
812,충청북도 청주시 상당구 단재로196번길 9 102동 101호,36.61292169,127.4993889,ok
813,충청북도 청주시 서원구 충대로 1 충북대학교병원 사랑누리어린이집(개신동),36.63004439,127.4550768,ok
814,충청북도 청주시 서원구 구룡산로52번길 51 성화다안채아파트관리동(성화동),36.61166105,127.4507577,ok
815,충청북도 청주시 흥덕구 복대로 213-5 ,36.63570151,127.4403518,ok
816,"충청북도 청주시 흥덕구 2순환로 1106 자이안센터 2층(비하동, 서청주파크자이)",36.63560936,127.4201326,ok
817,"충청북도 청주시 흥덕구 서현로 66 102동 1층(가경동, 청주가경아이파크)",36.6177569,127.4298446,ok
818,충청북도 청주시 청원구 오창읍 2산단로 160 관리동 (대성베르힐아파트),36.73426364,127.4522352,ok
819,충청북도 청주시 청원구 오창읍 중부로 760 101동 103호(오창롯데 더 하이스트),36.71154742,127.4371284,ok
820,충청북도 청주시 청원구 오창읍 중부로 760 115동 204호(오창롯데캐슬 더 하이스트),36.71154742,127.4371284,ok
821,충청북도 충주시 대소원면 산정독정길 152 ,36.95568478,127.870114,ok
822,충청북도 충주시 중앙탑면 원앙4길 51 자이아파트 의무동,37.01694445,127.8304541,ok
823,충청북도 충주시 중앙탑면 원앙9길 15 e편한세상아파트 의무동,37.0157413,127.8259188,ok
824,충청북도 충주시 중앙탑면 기업도시로 237 서충주어린이집,37.01668603,127.8226402,ok
825,충청북도 충주시 호암토성2로 1 호암 힐데스하임 아파트 의무동,36.95474113,127.9333295,ok
826,충청북도 충주시 호암수청1로 13 호암 우미린 에듀시티 의무동,36.95534673,127.9223391,ok
827,충청북도 제천시 청풍호로10길 31 강저코아루아파트 관리동,37.12038187,128.1977556,ok
828,충청북도 제천시 원화산로 43 서희스타힐스아파트 보육동,37.1258825,128.2119764,ok
829,충청북도 제천시 내토로 295 제천시청,37.13301329,128.1914987,ok
830,"충청북도 제천시 청풍호로7길 76 (영천동,제천강저리슈빌NHF)",37.12363309,128.2084769,ok
831,충청북도 옥천군 옥천읍 양수로 25-7 옥천지엘리베라움아파트 내 보육실,36.30059098,127.5628362,ok
832,충청북도 영동군 영동읍 이수길 50 ,36.17106525,127.7775699,ok
833,충청북도 영동군 심천면 초강로1안길 15 ,36.21445996,127.7144188,ok
834,충청북도 진천군 덕산읍 대월로 127 모아엘가 더 테라스 관리동,36.90451579,127.5430156,ok
835,경상남도 김해시 월산로 13-14 부영14차아파트 802동 104호(부곡동),35.19956042,128.810169,ok
836,경상남도 김해시 월산로 82-15 월산마을13단지 푸르지오아파트 1305-104(부곡동),35.20472644,128.8053191,ok
837,"경상남도 김해시 대청로 421 201동 102호(부곡동, 월산마을부영2단지아파트)",35.20881129,128.8029508,ok
838,"경상남도 김해시 능동로 117 403동 104호(부곡동, 석봉마을부영4단지아파트)",35.20097155,128.8020365,ok
839,"경상남도 김해시 월산로 111-44 807동 102호(부곡리, 월산마을부영8단지아파트)",35.20389407,128.8004435,ok
840,"경상남도 김해시 월산로 82-9 1303동 101호(부곡동, 월산마을푸르지오13단지아파트)",35.20349401,128.8046808,ok
841,"경상남도 김해시 능동로 114 705동 101호(부곡동, 석봉마을부영7단지아파트)",35.19983262,128.8051449,ok
842,"경상남도 김해시 월산로 112-56 902동 102호(부곡동, 월산마을부영9단지아파트)",35.20610099,128.8056972,ok
843,"경상남도 김해시 월산로 142 301동 103호(부곡동, 월산마을부영3단지아파트)",35.2085132,128.8009751,ok
844,"경상남도 김해시 월산로 118 608동 102호(부곡동, 월산마을부영6단지아파트)",35.20566984,128.8020154,ok
845,경상남도 김해시 월산로 119 주민복지관내 1층(부곡동),35.20485559,128.8006472,ok
846,"경상남도 김해시 능동로 114 704동 101호(부곡동, 석봉마을부영7단지아파트)",35.19983262,128.8051449,ok
847,"경상남도 김해시 월산로 118 607동 106호(부곡동, 월산마을부영6단지아파트)",35.20566984,128.8020154,ok
848,"경상남도 김해시 월산로 13-10 808동 103호(부곡동, 석봉마을부영8단지아파트)",35.20070487,128.8105112,ok
849,"경상남도 김해시 능동로 114 708동 101호(부곡동, 석봉마을부영7단지아파트)",35.19983262,128.8051449,ok
850,"경상남도 김해시 능동로 117 409동 101호(부곡동, 석봉마을부영4단지아파트)",35.20097155,128.8020365,ok
851,"경상남도 김해시 월산로 26 604동 102호(부곡동, 석봉마을대동피렌체6단지아파트)",35.20086312,128.8072849,ok
852,"경상남도 김해시 능동로 117 412동 101호(삼문리, 석봉마을부영4단지아파트)",35.20097155,128.8020365,ok
853,"경상남도 김해시 월산로 10 508동 104호(부곡동, 석봉마을대동다숲아파트)",35.20201951,128.8087173,ok
854,"경상남도 김해시 부곡로 10 411동 103호(부곡리, 월산마을부영4단지2차아파트)",35.20572292,128.7976998,ok
855,"경상남도 김해시 능동로 117 414동 102호(부곡동, 석봉마을부영4단지아파트)",35.20097155,128.8020365,ok
856,"경상남도 김해시 대청로 421 201동 101호(부곡동, 월산마을부영2단지아파트)",35.20881129,128.8029508,ok
857,"경상남도 김해시 월산로 118 606동 101호(부곡동, 월산마을부영6단지아파트)",35.20566984,128.8020154,ok
858,"경상남도 김해시 능동로 117 413동 103호(부곡동, 석봉마을부영4단지아파트)",35.20097155,128.8020365,ok
859,"경상남도 김해시 월산로 111-44 804동 103호(부곡동, 월산마을부영8단지아파트/16차)",35.20389407,128.8004435,ok
860,"경상남도 김해시 능동로 114 711동 101호(부곡동, 석봉마을부영7단지아파트)",35.19983262,128.8051449,ok
861,경상남도 김해시 월산로 82-55 (부곡동)월산마을부영아파트 1205동103호 3/4,35.20529473,128.8056093,ok
862,"경상남도 김해시 월산로 82-51 1204동 101호(부곡동, 월산마을부영12단지아파트)",35.20472702,128.8064459,ok
863,"경상남도 김해시 월산로 111-48 801동 101호(부곡동, 월산마을부영8단지아파트)",35.20317928,128.7993373,ok
864,"경상남도 김해시 월산로 13-10 804동 103호(부곡동, 석봉마을부영8단지아파트)",35.20070487,128.8105112,ok
865,"경상남도 김해시 월산로 118 603동 101호(부곡동, 월산마을부영6단지아파트)",35.20566984,128.8020154,ok
866,"경상남도 김해시 부곡로 10 412동 103호(부곡동, 월산마을부영4단지2차아파트)",35.20572292,128.7976998,ok
867,"경상남도 김해시 월산로 118 605동 105호(부곡동, 월산마을부영6단지아파트)",35.20566984,128.8020154,ok
868,"경상남도 김해시 월산로 82-55 1201동 104호(부곡동, 월산마을부영12단지아파트)",35.20529473,128.8056093,ok
869,"경상남도 김해시 월산로 112-55 503동102호(부곡동,두산위브5단지)",35.20728145,128.804738,ok
870,"경상남도 김해시 월산로 74 202동 104호(부곡동, 석봉마을대동피렌체2단지아파트)",35.20268205,128.8056701,ok
871,"경상남도 김해시 월산로 118 606동 104호(부곡동, 월산마을부영6단지아파트)",35.20566984,128.8020154,ok
872,"경상남도 김해시 부곡로 10 416동 101호(부곡동, 월산마을부영4단지2차아파트)",35.20572292,128.7976998,ok
873,"경상남도 김해시 월산로 118 603동 102호(부곡동, 월산마을부영6단지아파트)",35.20566984,128.8020154,ok
874,"경상남도 김해시 능동로 114 708동 102호(부곡동, 석봉마을부영7단지아파트)",35.19983262,128.8051449,ok
875,"경상남도 김해시 월산로 112-55 502동 101호(부곡동, 월산마을두산위브5단지아파트)",35.20728145,128.804738,ok
876,"경상남도 김해시 월산로 119 701동 101호(부곡동, 월산마을주공7단지아파트)",35.20485559,128.8006472,ok
877,경상남도 김해시 월산로 112-55 월산마을 두산위브아파트 501-101,35.20728145,128.804738,ok
878,"경상남도 김해시 월산로 26 607동 103호(부곡동, 석봉마을대동피렌체6단지아파트)",35.20086312,128.8072849,ok
879,"경상남도 김해시 월산로 10 502동 104호(삼문리, 석봉마을대동피렌체5단지아파트)",35.20201951,128.8087173,ok
880,"경상남도 김해시 월산로 26 608동 104호(부곡동, 석봉마을대동피렌체6단지아파트)",35.20086312,128.8072849,ok
881,경상남도 김해시 월산로 82-15 월산마을 13단지 푸르지오 1301-104,35.20472644,128.8053191,ok
882,"경상남도 김해시 월산로 82-62 105동 104호(부곡동, 석봉마을대동2단지아파트)",35.20460649,128.8078788,ok
883,"경상남도 김해시 대청로 421 부곡동,월산마을 부영아파트 204-101",35.20881129,128.8029508,ok
884,경상남도 김해시 월산로 82-62 대동아파트 103동 101호(부곡동),35.20460649,128.8078788,ok
885,경상남도 김해시 월산로 111-48 월산마을 8단지 부영임대아파트 802동 103호(부곡동),35.20317928,128.7993373,ok
886,경상남도 김해시 월산로 120 월산마을 6단지 부영아파트 관리동(부곡동),35.20626666,128.8016729,ok
887,"경상남도 김해시 율하1로 7 203동 101호(율하동, 율곡마을주공2단지아파트)",35.17372203,128.8051391,ok
888,"경상남도 김해시 율하2로 57 301동 103호(율하동, 율상마을푸르지오3단지아파트)",35.17281714,128.8085694,ok
889,"경상남도 김해시 율하2로 57 304동 104호(율하동, 율상마을푸르지오3단지아파트)",35.17281714,128.8085694,ok
890,"경상남도 김해시 율하2로 57 302동 104호 (율하동,푸르지오)",35.17281714,128.8085694,ok
891,"경상남도 김해시 율하1로 154 1102동 103호(율하동, 율현마을율하E-편한세상)",35.17189277,128.8203522,ok
892,"경상남도 김해시 율하2로 198 1108동 103호(율하동, 율현마을율하E-편한세상)",35.17092694,128.8215754,ok
893,"경상남도 김해시 율하1로 154 1108동 104호(율하동, 율현마을율하E-편한세상)",35.17189277,128.8203522,ok
894,"경상남도 김해시 율하2로 55 303동 104호(율하리, 율상마을푸르지오3단지아파트)",35.17297767,128.8083502,ok
895,"경상남도 김해시 율하3로 76 810동 102호(율하동, 신리마을중앙하이츠8단지아파트)",35.1735453,128.8187934,ok
896,"경상남도 김해시 율하1로 154 1107동 103호(율하동, 율현마을율하E-편한세상)",35.17189277,128.8203522,ok
897,"경상남도 김해시 율하2로 178 1209동 101호(율하동, 율현마을주공12단지)",35.16987455,128.8212194,ok
898,"경상남도 김해시 율하2로 162 1310동 101호(율하동, 율현마을주공13단지아파트)",35.16853241,128.8185189,ok
899,"경상남도 김해시 율하2로 162 1307동 106호(율하3동, 율현마을주공13단지아파트)",35.16853241,128.8185189,ok
900,"경상남도 김해시 율하2로 162 1314동 103호(율하동, 율현마을주공13단지아파트)",35.16853241,128.8185189,ok
901,"경상남도 김해시 율하2로 164 1314동 104호(율하동, 율현마을주공13단지아파트)",35.16816928,128.8208246,ok
902,"경상남도 김해시 율하2로 178 1201동 101호(율하동, 율현마을주공12단지)",35.16987455,128.8212194,ok
903,"경상남도 김해시 율하2로 125 1005동 102호(율하동,율현마을동원로야듀크아파트 1차)",35.17040292,128.8153135,ok
904,"경상남도 김해시 율하2로 55 307동 102호(율하리, 율상마을푸르지오3단지아파트)",35.17297767,128.8083502,ok
905,"경상남도 김해시 율하2로 162 1307동 102호(율하동, 율현마을주공13단지아파트)",35.16853241,128.8185189,ok
906,"경상남도 김해시 율하2로 162 1305동 102호(율하리, 율현마을주공13단지아파트)",35.16853241,128.8185189,ok
907,"경상남도 김해시 율하2로 162 1312동 103호(율하동, 율현마을주공13단지아파트)",35.16853241,128.8185189,ok
908,"경상남도 김해시 율하2로 178 1206동 103호(율하동, 율현마을주공12단지)",35.16987455,128.8212194,ok
909,경상남도 김해시 율하로 270-69 (율하동)숲속해바라기 어린이집,35.16942148,128.8053749,ok
910,"경상남도 김해시 율하2로 55 306동 101호(율하동, 율상마을푸르지오3단지아파트)",35.17297767,128.8083502,ok
911,"경상남도 김해시 율하2로 55 302동 101호(율하동, 율상마을푸르지오3단지아파트)",35.17297767,128.8083502,ok
912,"경상남도 김해시 율하2로 162 1309동 104호(율하동, 율현마을주공13단지아파트)",35.16853241,128.8185189,ok
913,"경상남도 김해시 율하3로 76 율하동,신리마을 중앙하이츠아파트 817-103",35.1735453,128.8187934,ok
914,"경상남도 김해시 율하2로 55 308동 104호(율하동, 율상마을푸르지오3단지아파트)",35.17297767,128.8083502,ok
915,경상남도 김해시 율하2로 57 푸르지오3단지 관리동 (율하동),35.17281714,128.8085694,ok
916,경상남도 김해시 율하로346번길 18 (율하동),35.1665228,128.81187,ok
917,"경상남도 김해시 율하1로 7 202동 101호(율하동, 율곡마을주공2단지아파트)",35.17372203,128.8051391,ok
918,경상남도 김해시 율하3로 76 신리마을 중앙하이츠 802-101,35.1735453,128.8187934,ok
919,"경상남도 김해시 율하2로 162 1310동 102호(율하동, 율현마을주공13단지아파트)",35.16853241,128.8185189,ok
920,경상남도 김해시 율하3로 76 신리마을 중앙하이츠 801-103(율하동),35.1735453,128.8187934,ok
921,경상남도 김해시 율하2로58번길 16 (율하동),35.17166004,128.8073531,ok
922,"경상남도 김해시 율하1로 154 1106동 104호(율하리, 율현마을율하E-편한세상)",35.17189277,128.8203522,ok
923,경상남도 김해시 율하2로 180 율현주공아파트 1209-105,35.16984539,128.8197898,ok
924,경상남도 김해시 율하2로 125 동원로얄듀크 아파트 1011동 103호,35.17040292,128.8153135,ok
925,경상남도 김해시 율하2로 125 (율하동)동원로얄듀크 1002-102,35.17040292,128.8153135,ok
926,경상남도 김해시 율하2로 125 (율하동)동원로얄듀크 1001동 102호,35.17040292,128.8153135,ok
927,"경상남도 김해시 율하2로 125 1009동 102호(율하동,동원로얄듀크1차)",35.17040292,128.8153135,ok
928,"경상남도 김해시 율하2로 125 1003동 102호(율하동,동원로얄듀크1차)",35.17040292,128.8153135,ok
929,"경상남도 김해시 율하2로 125 율하동,동원로얄듀크아파트 1009동 103호",35.17040292,128.8153135,ok
930,"경상남도 김해시 율하2로 125 1008동 105호(율하동,동원로얄듀크1차)",35.17040292,128.8153135,ok
931,"경상남도 김해시 삼문로 88 1103동 104호(삼문동, 갑오마을부영그린타운11단지아파트)",35.19109356,128.8072719,ok
932,"경상남도 김해시 능동로 32 401동 101호(삼문동, 젤미마을부영그린타운4단지아파트)",35.19627522,128.7983262,ok
933,"경상남도 김해시 능동로 32 404동 103호(삼문동, 젤미마을부영그린타운4단지아파트)",35.19627522,128.7983262,ok
934,경상남도 김해시 대청로261번길 1-18 (삼문동),35.19919758,128.7910973,ok
935,경상남도 김해시 능동로 32 부영 e그린 7차 관리소 1층 (삼문동),35.19627522,128.7983262,ok
936,"경상남도 김해시 번화2로 88 108동 106호(삼문동, 젤미마을부영1단지아파트)",35.19649875,128.8031836,ok
937,"경상남도 김해시 번화2로 88 104동 109호(삼문동, 젤미마을부영1단지아파트)",35.19649875,128.8031836,ok
938,"경상남도 김해시 반룡로 87-12 1004동 103호(삼문동, 갑오마을부영그린타운10단지아파트)",35.19077353,128.8086245,ok
939,"경상남도 김해시 능동로 76 관리동(삼문동, 젤미마을주공2단지아파트)",35.19717313,128.8020567,ok
940,"경상남도 김해시 능동로 32 406동 105호(삼문동, 젤미마을부영그린타운4단지아파트)",35.19627522,128.7983262,ok
941,"경상남도 김해시 번화2로 88 111동 105호(삼문동, 젤미마을부영1단지아파트)",35.19649875,128.8031836,ok
942,"경상남도 김해시 번화1로 168 1001동 105호(삼문동, 젤미마을한림리츠빌10단지아파트)",35.19913964,128.7942851,ok
943,"경상남도 김해시 번화1로 104 301동 104호(삼문리, 젤미마을대동피렌체앙코르3단지아파트)",35.19668775,128.8002693,ok
944,"경상남도 김해시 능동로 32 406동 103호(삼문동, 젤미마을부영그린타운4단지아파트)",35.19627522,128.7983262,ok
945,"경상남도 김해시 능동로 32 402동 106호(삼문동, 젤미마을부영그린타운4단지아파트)",35.19627522,128.7983262,ok
946,"경상남도 김해시 번화2로 88 103동 104호(삼문동, 젤미마을부영1단지아파트)",35.19649875,128.8031836,ok
947,"경상남도 김해시 번화2로 88 111동 102호(삼문동, 젤미마을부영1단지아파트)",35.19649875,128.8031836,ok
948,"경상남도 김해시 번화1로84번길 7 705동 103호(삼문동, 젤미마을부영그린타운7단지아파트)",35.19514357,128.8000308,ok
949,"경상남도 김해시 번화1로84번길 29 601동 101호(삼문동, 젤미마을주공6단지아파트)",35.1963686,128.8025004,ok
950,경상남도 김해시 번화2로 88 부영 11차 복리동(삼문동),35.19649875,128.8031836,ok
951,"경상남도 김해시 능동로 32 406동 102호(삼문동, 젤미마을부영그린타운4단지아파트)",35.19627522,128.7983262,ok
952,"경상남도 김해시 능동로 8 502동 106호(삼문동, 젤미마을푸르지오5단지아파트)",35.19553223,128.7947218,ok
953,"경상남도 김해시 능동로 32 삼문동,젤미마을 부영 e그린 7차 401-106",35.19627522,128.7983262,ok
954,"경상남도 김해시 능동로 8 504동 102호(삼문동, 젤미마을푸르지오5단지아파트)",35.19553223,128.7947218,ok
955,"경상남도 김해시 번화1로84번길 9 701동 104호(삼문동, 젤미마을부영그린타운7단지아파트)",35.19613659,128.8001773,ok
956,"경상남도 김해시 번화2로 88 104동 102호(삼문동, 젤미마을부영1단지아파트)",35.19649875,128.8031836,ok
957,"경상남도 김해시 대청로210번길 35 801동 101호(삼문동, 젤미마을파크뷰8단지아파트)",35.19475194,128.7981126,ok
958,경상남도 김해시 번화1로124번길 8 (삼문동),35.19829164,128.7987042,ok
959,"충청북도 청주시 서원구 예체로 68 106동 103호(사직동, 푸르지오캐슬아파트)",36.63374989,127.4697156,ok
960,"충청북도 청주시 서원구 예체로 68 107동 104호(사직동, 푸르지오캐슬아파트)",36.63374989,127.4697156,ok
961,"충청북도 청주시 서원구 예체로 68 101동 105호(사직동, 푸르지오캐슬아파트)",36.63374989,127.4697156,ok
962,"충청북도 청주시 서원구 예체로 68 101동 101호(사직동, 푸르지오캐슬아파트)",36.63374989,127.4697156,ok
963,"충청북도 청주시 서원구 예체로 68 104동 101호(사직동, 푸르지오캐슬아파트)",36.63374989,127.4697156,ok
964,"충청북도 청주시 서원구 예체로 68 106동 104호(사직동, 푸르지오캐슬아파트)",36.63374989,127.4697156,ok
965,"충청북도 청주시 서원구 예체로 68 108동 105호(사직동, 푸르지오캐슬아파트)",36.63374989,127.4697156,ok
966,"충청북도 청주시 서원구 예체로 68 104동 102호(사직동, 푸르지오캐슬아파트)",36.63374989,127.4697156,ok
967,"충청북도 청주시 서원구 예체로 68 112동 101호(사직동, 푸르지오캐슬아파트)",36.63374989,127.4697156,ok
968,"충청북도 청주시 서원구 예체로 68 115동 101호(사직동, 푸르지오캐슬아파트)",36.63374989,127.4697156,ok
969,"충청북도 청주시 서원구 예체로 68 104동 105호(사직동, 푸르지오캐슬아파트)",36.63374989,127.4697156,ok
970,"충청북도 청주시 서원구 예체로 68 114동 101호(사직동, 푸르지오캐슬아파트)",36.63374989,127.4697156,ok
971,"충청북도 청주시 서원구 예체로 68 106동 102호(사직동, 푸르지오캐슬아파트)",36.63374989,127.4697156,ok
972,"충청북도 청주시 서원구 예체로 68 101동 103호(사직동, 푸르지오캐슬아파트)",36.63374989,127.4697156,ok
973,"충청북도 청주시 서원구 예체로 68 107동 101호(사직동, 푸르지오캐슬아파트)",36.63374989,127.4697156,ok
974,"충청북도 청주시 서원구 예체로 68 101동 104호(사직동, 푸르지오캐슬아파트)",36.63374989,127.4697156,ok
975,"충청북도 청주시 서원구 예체로 68 104동 106호(사직동, 푸르지오캐슬아파트)",36.63374989,127.4697156,ok
976,"충청북도 청주시 서원구 예체로 68 111동 103호(사직동, 푸르지오캐슬아파트)",36.63374989,127.4697156,ok
977,"충청북도 청주시 서원구 예체로 68 108동 101호(사직동, 푸르지오캐슬아파트)",36.63374989,127.4697156,ok
978,"충청북도 청주시 서원구 예체로 68 110동 101호(사직동, 푸르지오캐슬아파트)",36.63374989,127.4697156,ok
979,"충청북도 청주시 서원구 예체로 68 111동 104호(사직동, 푸르지오캐슬아파트)",36.63374989,127.4697156,ok
980,"충청북도 청주시 서원구 예체로 68 105동 104호(사직동, 푸르지오캐슬아파트)",36.63374989,127.4697156,ok
981,"충청북도 청주시 서원구 예체로 68 103동 102호(사직동, 푸르지오캐슬아파트)",36.63374989,127.4697156,ok
982,"충청북도 청주시 서원구 예체로 68 103동 103호(사직동, 푸르지오캐슬아파트)",36.63374989,127.4697156,ok
983,"충청북도 청주시 서원구 예체로 68 107동 102호(사직동, 푸르지오캐슬아파트)",36.63374989,127.4697156,ok
984,"충청북도 청주시 서원구 예체로 68 111동 101호(사직동, 푸르지오캐슬아파트)",36.63374989,127.4697156,ok
985,"충청북도 청주시 서원구 예체로 68 (사직동, 푸르지오캐슬1단지 관리동)",36.63374989,127.4697156,ok
986,경기도 남양주시 도농로 34 3단지 관리동,37.61264442,127.1626215,ok
987,경기도 남양주시 도농로 34 부영아파트 2단지관리동1층,37.61101957,127.1562291,ok
988,경기도 남양주시 도농로 34 301동 101호(도농동  부영E그린타운2차3단지아파트),37.61101957,127.1562291,ok
989,"경기도 남양주시 도농로 34 511동 101호(도농동, 부영E그린타운1차5단지아파트)",37.61101957,127.1562291,ok
990,경기도 남양주시 도농로 34 부영아파트  5단지 관리사무소 1층,37.61101957,127.1562291,ok
991,"경기도 남양주시 도농로 34 310동 104호(도농동, 부영E그린타운2차3단지아파트)",37.61101957,127.1562291,ok
992,경기도 남양주시 도농로 34 503동 102호 도농동( 부영E그린타운1차5단지아파트),37.61101957,127.1562291,ok
993,"경기도 남양주시 도농로 34 514동102호(도농동, 부영E그린타운1차5단지아파트)",37.61101957,127.1562291,ok
994,"경기도 남양주시 도농로 34 401동 106호(도농동, 부영E그린타운1차5단지아파트)",37.61101957,127.1562291,ok
995,"경기도 남양주시 도농로 34 502동 102호(도농동, 부영E그린타운1차5단지아파트)",37.61101957,127.1562291,ok
996,"경기도 남양주시 도농로 34 303동 102호(도농동, 부영E그린타운2차3단지아파트)",37.61101957,127.1562291,ok
997,"경기도 남양주시 도농로 34 311동 102호(도농동, 부영E그린타운2차3단지아파트)",37.61101957,127.1562291,ok
998,"경기도 남양주시 도농로 34 215동 104호(도농동, 부영E그린타운4차2단지아파트)",37.61101957,127.1562291,ok
999,"경기도 남양주시 도농로 34 209동 101호(도농동, 부영E그린타운4차2단지아파트)",37.61101957,127.1562291,ok
1000,"경기도 남양주시 도농로 34 204동 101호(도농동, 부영E그린타운4차2단지아파트)",37.61101957,127.1562291,ok
1001,"경기도 남양주시 도농로 34 213동 103호(도농동, 부영E그린타운4차2단지아파트)",37.61101957,127.1562291,ok
1002,"경기도 남양주시 도농로 34 104동 101호(도농동, 부영E그린타운3차1단지아파트)",37.61101957,127.1562291,ok
1003,"경기도 남양주시 도농로 34 203동 102호(도농동, 부영E그린타운4차2단지아파트)",37.61101957,127.1562291,ok
1004,"대전광역시 서구 대덕대로 150 126동 108호 (갈마동, 큰마을아파트)",36.34506856,127.3769274,ok
1005,"대전광역시 서구 대덕대로 150 115동 106호 (갈마동, 큰마을아파트)",36.34506856,127.3769274,ok
1006,"대전광역시 서구 대덕대로 150 116동 102호 (갈마동, 큰마을아파트)",36.34506856,127.3769274,ok
1007,"대전광역시 서구 대덕대로 150 108동 109호 (갈마동, 큰마을아파트)",36.34506856,127.3769274,ok
1008,"대전광역시 서구 대덕대로 150 116동 101호 (갈마동, 큰마을아파트)",36.34506856,127.3769274,ok
1009,"대전광역시 서구 대덕대로 150 109동 107호 (갈마동, 큰마을아파트)",36.34506856,127.3769274,ok
1010,"대전광역시 서구 대덕대로 150 125동 105호 (갈마동, 큰마을아파트)",36.34506856,127.3769274,ok
1011,"대전광역시 서구 대덕대로 150 115동 101호 (갈마동, 큰마을아파트)",36.34506856,127.3769274,ok
1012,"대전광역시 서구 대덕대로 150 117동 102호 (갈마동, 큰마을아파트)",36.34506856,127.3769274,ok
1013,"대전광역시 서구 대덕대로 150 119동 101호 (갈마동, 큰마을아파트)",36.34506856,127.3769274,ok
1014,"대전광역시 서구 대덕대로 150 111동 105호 (갈마동, 큰마을아파트)",36.34506856,127.3769274,ok
1015,"대전광역시 서구 대덕대로 150 121동 105호 (갈마동, 큰마을아파트)",36.34506856,127.3769274,ok
1016,"대전광역시 서구 대덕대로 150 110동 109호 (갈마동, 큰마을아파트)",36.34506856,127.3769274,ok
1017,"대전광역시 서구 대덕대로 150 122동 101호 (갈마동, 큰마을아파트)",36.34506856,127.3769274,ok
1018,"대전광역시 서구 대덕대로 150 103동 101호 (갈마동, 큰마을아파트)",36.34506856,127.3769274,ok
1019,"대전광역시 서구 대덕대로 150 118동 102호 (갈마동, 큰마을아파트)",36.34506856,127.3769274,ok
1020,"대전광역시 서구 대덕대로 150 123동 102호 (갈마동, 큰마을아파트)",36.34506856,127.3769274,ok
1021,"충청남도 천안시 동남구 신촌4로 16 109동 106호(신방동, 초원아파트)",36.78777222,127.1267267,ok
1022,"충청남도 천안시 동남구 신촌4로 16 105동 107호(신방동, 초원아파트)",36.78777222,127.1267267,ok
1023,"충청남도 천안시 동남구 신촌4로 16 (신방동, 초원아파트 내)",36.78777222,127.1267267,ok
1024,"충청남도 천안시 동남구 신촌4로 16 102동 123호(신방동, 초원아파트)",36.78777222,127.1267267,ok
1025,"충청남도 천안시 동남구 신촌4로 16 115동 113호(신방동, 초원아파트)",36.78777222,127.1267267,ok
1026,"충청남도 천안시 동남구 신촌4로 16 106동 103호(신방동, 초원아파트)",36.78777222,127.1267267,ok
1027,"충청남도 천안시 동남구 신촌4로 16 111동 107호(신방동, 초원아파트)",36.78777222,127.1267267,ok
1028,"충청남도 천안시 동남구 신촌4로 16 110동 112호(신방동, 초원아파트)",36.78777222,127.1267267,ok
1029,"충청남도 천안시 동남구 신촌4로 16 108동 113호(신방동, 초원아파트)",36.78777222,127.1267267,ok
1030,"충청남도 천안시 동남구 신촌4로 16 114동 104호(신방동, 초원아파트)",36.78777222,127.1267267,ok
1031,"충청남도 천안시 동남구 신촌4로 16 104동 110호(신방동, 초원아파트)",36.78777222,127.1267267,ok
1032,"충청남도 천안시 동남구 신촌4로 16 113동 107호(신방동, 초원아파트)",36.78777222,127.1267267,ok
1033,"충청남도 천안시 동남구 신촌4로 16 112동 104호(신방동, 초원아파트)",36.78777222,127.1267267,ok
1034,"충청남도 천안시 동남구 신촌4로 16 101동 112호(신방동, 초원아파트)",36.78777222,127.1267267,ok
1035,"충청남도 천안시 동남구 신촌4로 16 116동 103호(신방동, 초원아파트)",36.78777222,127.1267267,ok
1036,"충청남도 천안시 동남구 신촌4로 16 107동 102호(신방동, 초원아파트)",36.78777222,127.1267267,ok
1037,경상남도 김해시 대청로104번길 46 (대청동),35.18665988,128.8028793,ok
1038,"경상남도 김해시 계동로 76-56 604동 101호(대청동, 갑오마을부영6단지아파트)",35.18191656,128.7980496,ok
1039,"경상남도 김해시 계동로102번길 24 404동 102호(대청동, 갑오마을부영4단지아파트)",35.18456273,128.7980216,ok
1040,"경상남도 김해시 계동로 86 506동 104호(대청동, 갑오마을부영5단지아파트)",35.18405824,128.7954829,ok
1041,"경상남도 김해시 계동로102번길 24 407동 106호(대청동, 갑오마을부영4단지아파트)",35.18456273,128.7980216,ok
1042,"경상남도 김해시 계동로102번길 17-27 305동 102호(대청동, 갑오마을대동3단지아파트)",35.18768853,128.7965306,ok
1043,"경상남도 김해시 계동로102번길 24 401동 104호(대청동, 갑오마을부영4단지아파트)",35.18456273,128.7980216,ok
1044,"경상남도 김해시 계동로 86 505동 105호(대청동, 갑오마을부영5단지아파트)",35.18405824,128.7954829,ok
1045,경상남도 김해시 번화1로19번길 8 (대청동),35.18923963,128.8001805,ok
1046,경상남도 김해시 계동로 76-22 704동 106호(대청동. 갑오마을부영7단지아파트),35.18307526,128.7969312,ok
1047,경상남도 김해시 계동로 76-56 갑오마을부영아파트 607-102(대청동),35.18191656,128.7980496,ok
1048,"경상남도 김해시 계동로102번길 24 405동 103호(대청동, 갑오마을부영4단지아파트)",35.18456273,128.7980216,ok
1049,"경상남도 김해시 계동로 76-56 608동 101호(대청동, 갑오마을부영6단지아파트)",35.18191656,128.7980496,ok
1050,"경상남도 김해시 계동로 86 501동 105호(대청동, 갑오마을부영5단지아파트)",35.18405824,128.7954829,ok
1051,"경상남도 김해시 계동로102번길 17-27 305동 101호(대청동, 갑오마을대동3단지아파트)",35.18768853,128.7965306,ok
1052,경상남도 김해시 계동로212번길 18 (대청동),35.19033746,128.803107,ok
1053,"대전광역시 유성구 구즉로 25 308동 104호(송강동, 송강그린아파트)",36.43285684,127.3818971,ok
1054,"대전광역시 유성구 구즉로 25 312동 104호(송강동, 송강그린아파트)",36.43285684,127.3818971,ok
1055,"대전광역시 유성구 구즉로 25 308동 101호(송강동, 송강그린아파트)",36.43285684,127.3818971,ok
1056,"대전광역시 유성구 구즉로 25 308동 106호(송강동, 송강그린아파트)",36.43285684,127.3818971,ok
1057,"대전광역시 유성구 구즉로 25 310동 105호(송강동, 송강그린아파트)",36.43285684,127.3818971,ok
1058,"대전광역시 유성구 구즉로 25 303동 105호(송강동, 송강그린아파트)",36.43285684,127.3818971,ok
1059,"대전광역시 유성구 구즉로 25 304동 105호(송강동, 송강그린아파트)",36.43285684,127.3818971,ok
1060,"대전광역시 유성구 구즉로 25 311동 104호(송강동, 송강그린아파트)",36.43285684,127.3818971,ok
1061,"대전광역시 유성구 구즉로 25 310동 104호(송강동, 송강그린아파트)",36.43285684,127.3818971,ok
1062,"대전광역시 유성구 구즉로 25 315동 104호(송강동, 송강그린아파트)",36.43285684,127.3818971,ok
1063,"대전광역시 유성구 구즉로 25 310동 106호(송강동, 송강그린아파트)",36.43285684,127.3818971,ok
1064,"대전광역시 유성구 구즉로 25 311동 103호(송강동, 송강그린아파트)",36.43285684,127.3818971,ok
1065,"대전광역시 유성구 구즉로 25 308동 102호(송강동, 송강그린아파트)",36.43285684,127.3818971,ok
1066,"대전광역시 유성구 구즉로 25 312동 101호(송강동, 송강그린아파트)",36.43285684,127.3818971,ok
1067,"대전광역시 유성구 구즉로 25 307동 102호(송강동, 송강그린아파트)",36.43285684,127.3818971,ok
1068,"대전광역시 유성구 구즉로 25 304동 106호(송강동, 송강그린아파트)",36.43285684,127.3818971,ok
1069,"경상남도 김해시 부곡로 78 107동 113호(부곡동, 월산마을부영1단지아파트)",35.20944825,128.8007355,ok
1070,"경상남도 김해시 월산로 120 608동 101호(부곡동, 월산마을부영6단지아파트)",35.20626666,128.8016729,ok
1071,"경상남도 김해시 월산로 142 305동 102호(부곡동, 월산마을부영3단지아파트)",35.2085132,128.8009751,ok
1072,"경상남도 김해시 월산로 112-56 902동 101호(부곡동, 월산마을부영9단지아파트)",35.20610099,128.8056972,ok
1073,"경상남도 김해시 장유면 월산로 111-44 803동 16호(부곡리, 월산마을부영8단지아파트)",35.20389407,128.8004435,ok
1074,"경상남도 김해시 월산로 82-55 1202동 104호(부곡동, 월산마을부영12단지아파트)",35.20529473,128.8056093,ok
1075,"경상남도 김해시 월산로 111-48 805동 102호(부곡동, 월산마을부영8단지아파트)",35.20317928,128.7993373,ok
1076,"경상남도 김해시 월산로 82-55 1206동 104호(부곡동, 월산마을부영12단지아파트)",35.20529473,128.8056093,ok
1077,"경상남도 김해시 월산로 82-55 1203동 101호(부곡동, 월산마을부영12단지아파트)",35.20529473,128.8056093,ok
1078,"경상남도 김해시 부곡로 10 416동 106호(부곡동, 월산마을부영4단지아파트)",35.20572292,128.7976998,ok
1079,"경상남도 김해시 월산로 112-56 905동 104호(부곡동, 월산마을부영9단지아파트)",35.20610099,128.8056972,ok
1080,"경상남도 김해시 월산로 142 307동 104호(부곡동, 월산마을부영3단지아파트)",35.2085132,128.8009751,ok
1081,"경상남도 김해시 장유면 월산로 111-44 806동 103호(부곡리, 월산마을부영8단지아파트)",35.20389407,128.8004435,ok
1082,"경상남도 김해시 월산로 111-44 807동 106호(부곡동, 월산마을부영8단지아파트/16차)",35.20389407,128.8004435,ok
1083,"경상남도 김해시 월산로 151 402동 103호(부곡동, 월산마을4단지부영아파트)",35.20638578,128.7983112,ok
1084,"경상남도 김해시 월산로 111-48 805동 103호(부곡동, 월산마을부영8단지아파트/16차)",35.20317928,128.7993373,ok
1085,"경기도 의정부시 용현로 143 105동 102호(민락동, 산들마을신안1단지아파트)",37.74125282,127.0916256,ok
1086,"경기도 의정부시 용현로 143 201동 106호(민락동, 산들마을길훈2단지아파트)",37.74125282,127.0916256,ok
1087,"경기도 의정부시 용현로 143 102동 105호(민락동, 산들마을신안1단지아파트)",37.74125282,127.0916256,ok
1088,"경기도 의정부시 용현로 143 301동 103호(민락동, 산들마을현대3단지아파트)",37.74125282,127.0916256,ok
1089,"경기도 의정부시 용현로 143 103동 106호(민락동, 산들마을신안1단지아파트)",37.74125282,127.0916256,ok
1090,"경기도 의정부시 용현로 143 103동 107호(민락동, 산들마을신안1단지아파트)",37.74125282,127.0916256,ok
1091,"경기도 의정부시 용현로 143 102동 102호(민락동, 산들마을신안1단지아파트)",37.74125282,127.0916256,ok
1092,"경기도 의정부시 용현로 143 204동 103호(민락동, 산들마을길훈2단지아파트)",37.74125282,127.0916256,ok
1093,"경기도 의정부시 용현로 143 205동 102호(민락동, 산들마을길훈2단지아파트)",37.74125282,127.0916256,ok
1094,"경기도 의정부시 용현로 143 202동 106호(민락동, 산들마을길훈2단지아파트)",37.74125282,127.0916256,ok
1095,"경기도 의정부시 용현로 143 303동 106호(민락동,현대아파트)",37.74125282,127.0916256,ok
1096,"경기도 의정부시 용현로 143 301동 104호(민락동, 산들마을현대3단지아파트)",37.74125282,127.0916256,ok
1097,"경기도 의정부시 용현로 143 205동 101호(민락동, 산들마을길훈2단지아파트)",37.74125282,127.0916256,ok
1098,"경기도 의정부시 용현로 143 304동 101호(민락동, 산들마을현대3단지아파트)",37.74125282,127.0916256,ok
1099,"경기도 의정부시 용현로 143 104동 106호(민락동, 산들마을신안1단지아파트)",37.74125282,127.0916256,ok
1100,경상남도 김해시 장유로301번길 22-12 (무계동),35.20138337,128.8158734,ok
1101,경상남도 김해시 장유로324번길 46-5 (무계동),35.19721657,128.8108863,ok
1102,경상남도 김해시 장유로307번길 12-1 리틀프렌즈어린이집(무계동),35.19962938,128.8166947,ok
1103,"경상남도 김해시 금관대로599번길 27 908동 105호(무계동, 석봉마을부영9단지아파트)",35.20318956,128.8107955,ok
1104,경상남도 김해시 금관대로599번길 11 대동아파트 1단지내 관리동1층(무계동),35.20195199,128.8120208,ok
1105,"경상남도 김해시 금관대로599번길 27 911동 110호(무계동, 석봉마을부영9단지아파트)",35.20318956,128.8107955,ok
1106,"경상남도 김해시 금관대로599번길 27 902동 107호(무계동, 석봉마을부영9단지아파트)",35.20318956,128.8107955,ok
1107,"경상남도 김해시 금관대로599번길 11 1011동 101호(무계동, 석봉마을대동10단지아파트)",35.20195199,128.8120208,ok
1108,"경상남도 김해시 금관대로599번길 27 903동 101호(무계동, 석봉마을부영9단지아파트)",35.20318956,128.8107955,ok
1109,"경상남도 김해시 금관대로599번길 27 905동 108호(무계동, 석봉마을부영9단지아파트)",35.20318956,128.8107955,ok
1110,"경상남도 김해시 금관대로599번길 11 1012동 101호(무계동, 석봉마을대동10단지아파트)",35.20195199,128.8120208,ok
1111,"경상남도 김해시 금관대로599번길 11 1009동 104호(무계동, 석봉마을대동10단지아파트)",35.20195199,128.8120208,ok
1112,"경상남도 김해시 금관대로599번길 11 1010동 101호(무계동, 석봉마을대동10단지아파트)",35.20195199,128.8120208,ok
1113,"경상남도 김해시 금관대로599번길 11 1007동 103호(무계동, 석봉마을대동10단지아파트)",35.20195199,128.8120208,ok
1114,"경상남도 김해시 장유로288번길 15 101동 104호(무계동, 장유더샵아파트)",35.19964422,128.8146481,ok
1115,"충청남도 아산시 호서로 460 128동 101호(갈매리, 배방자이아파트)",36.76834269,127.0834,ok
1116,"충청남도 아산시 호서로 460 103동 106호(갈매리, 배방자이아파트)",36.76834269,127.0834,ok
1117,"충청남도 아산시 호서로 460 102동 102호(갈매리, 배방자이아파트)",36.76834269,127.0834,ok
1118,"충청남도 아산시 호서로 460 129동 102호(갈매리, 배방자이아파트)",36.76834269,127.0834,ok
1119,"충청남도 아산시 호서로 460 123동 102호(갈매리, 배방자이아파트)",36.76834269,127.0834,ok
1120,"충청남도 아산시 호서로 460 105동 103호(갈매리, 배방자이아파트)",36.76834269,127.0834,ok
1121,"충청남도 아산시 호서로 460 115동 101호(갈매리, 배방자이아파트)",36.76834269,127.0834,ok
1122,"충청남도 아산시 호서로 460 107동 106호(갈매리, 배방자이아파트)",36.76834269,127.0834,ok
1123,"충청남도 아산시 배방읍 호서로 460 104동 103호(갈매리, 배방자이아파트)",36.76834269,127.0834,ok
1124,"충청남도 아산시 호서로 460 109동 104호(갈매리, 배방자이아파트)",36.76834269,127.0834,ok
1125,"충청남도 아산시 호서로 460 130동 102호(갈매리, 배방자이아파트)",36.76834269,127.0834,ok
1126,"충청남도 아산시 호서로 460 108동 102호(갈매리, 배방자이아파트)",36.76834269,127.0834,ok
1127,"충청남도 아산시 호서로 460 119동 106호(갈매리, 배방자이아파트)",36.76834269,127.0834,ok
1128,"충청남도 아산시 호서로 460 126동 102호(갈매리, 배방자이아파트)",36.76834269,127.0834,ok
1129,"충청남도 아산시 배방읍 배방로 131 108동 104호(공수리, 한라비발디아파트)",36.7715238,127.0615313,ok
1130,"대전광역시 서구 관저로 84 관리소내 (관저동, 구봉마을 8-1단지)",36.29747469,127.3300677,ok
1131,"대전광역시 서구 관저로 84 808동 104호 (관저동, 구봉마을8단지)",36.29747469,127.3300677,ok
1132,"대전광역시 서구 관저로 84 805동 106호 (관저동, 구봉마을8단지)",36.29747469,127.3300677,ok
1133,"대전광역시 서구 관저로 84 804동 103호 (관저동, 구봉마을8단지)",36.29747469,127.3300677,ok
1134,"대전광역시 서구 관저로 84 812동 104호 (관저동, 구봉마을8단지)",36.29747469,127.3300677,ok
1135,"대전광역시 서구 관저로 84 806동 105호 (관저동, 구봉마을8단지)",36.29747469,127.3300677,ok
1136,"대전광역시 서구 관저로 84 802동 104호 (관저동, 구봉마을8단지)",36.29747469,127.3300677,ok
1137,"대전광역시 서구 관저로 84 814동 101호 (관저동, 구봉마을8단지)",36.29747469,127.3300677,ok
1138,"대전광역시 서구 관저로 84 807동 102호 (관저동, 구봉마을8단지)",36.29747469,127.3300677,ok
1139,"대전광역시 서구 관저로 84 811동 104호 (관저동, 구봉마을8단지)",36.29747469,127.3300677,ok
1140,"대전광역시 서구 관저로 84 관리소내 (관저동, 구봉마을 8-2단지)",36.29747469,127.3300677,ok
1141,"대전광역시 서구 관저로 84 801동 104호 (관저동, 구봉마을8단지)",36.29747469,127.3300677,ok
1142,"대전광역시 서구 관저로 84 803동 104호 (관저동, 구봉마을8단지)",36.29747469,127.3300677,ok
1143,"경기도 의정부시 부용로 233 111동 104호(용현동, 송산주공1단지)",37.74861033,127.0811386,ok
1144,"경기도 의정부시 부용로 233 114동 104호(용현동, 송산주공1단지)",37.74861033,127.0811386,ok
1145,"경기도 의정부시 부용로 233 102동 103호(용현동, 송산주공1단지)",37.74861033,127.0811386,ok
1146,"경기도 의정부시 부용로 233 107동 105호(용현동, 송산주공1단지)",37.74861033,127.0811386,ok
1147,"경기도 의정부시 부용로 233 117동 104호(용현동, 송산주공1단지)",37.74861033,127.0811386,ok
1148,"경기도 의정부시 부용로 233 118동 102호(용현동, 송산주공1단지)",37.74861033,127.0811386,ok
1149,"경기도 의정부시 부용로 233 116동 104호(용현동, 송산주공1단지)",37.74861033,127.0811386,ok
1150,"경기도 의정부시 부용로 233 107동 102호(용현동, 송산주공1단지)",37.74861033,127.0811386,ok
1151,"경기도 의정부시 부용로 233 108동 104호(용현동, 송산주공1단지)",37.74861033,127.0811386,ok
1152,"경기도 의정부시 부용로 233 117동 102호(용현동, 송산주공1단지)",37.74861033,127.0811386,ok
1153,"경기도 의정부시 부용로 233 102동 101호(용현동, 송산주공1단지)",37.74861033,127.0811386,ok
1154,"경기도 의정부시 부용로 233 109동 102호(용현동, 송산주공1단지)",37.74861033,127.0811386,ok
1155,"경기도 의정부시 부용로 233 108동 102호(용현동, 송산주공1단지)",37.74861033,127.0811386,ok
1156,"경기도 의정부시 부용로 233 114동 103호(용현동, 송산주공1단지)",37.74861033,127.0811386,ok
1157,경상남도 창원시 성산구 원이대로 774 성원아파트 5단지 복지동,35.21562293,128.6917287,ok
1158,"경상남도 창원시 성산구 원이대로 774 205동 103호(상남동, 성원아파트)",35.21562293,128.6917287,ok
1159,"경상남도 창원시 성산구 원이대로 774 511동 103호(상남동, 성원3차아파트)",35.21562293,128.6917287,ok
1160,"경상남도 창원시 성산구 원이대로 774 108동 101호(상남동, 성원3차아파트)",35.21562293,128.6917287,ok
1161,"경상남도 창원시 성산구 원이대로 774 303동 105호(상남동, 성원3차아파트)",35.21562293,128.6917287,ok
1162,"경상남도 창원시 성산구 원이대로 774 307동 104호(상남동, 성원3차아파트)",35.21562293,128.6917287,ok
1163,"경상남도 창원시 성산구 원이대로 774 203동 114호(상남동, 성원2단지아파트)",35.21562293,128.6917287,ok
1164,"경상남도 창원시 성산구 원이대로 774 312동 106호(상남동, 성원3차아파트)",35.21562293,128.6917287,ok
1165,"경상남도 창원시 성산구 원이대로 774 104동 102호(상남동, 성원1차아파트)",35.21562293,128.6917287,ok
1166,"경상남도 창원시 성산구 원이대로 774 504동 101호(상남동, 성원3차아파트)",35.21562293,128.6917287,ok
1167,"경상남도 창원시 성산구 원이대로 774 501동 102호(상남동, 성원3차아파트)",35.21562293,128.6917287,ok
1168,"경상남도 창원시 성산구 원이대로 774 508동 104호(상남동, 성원3차아파트)",35.21562293,128.6917287,ok
1169,"경상남도 창원시 성산구 원이대로 774 105동 102호(상남동, 성원아파트)",35.21562293,128.6917287,ok
1170,"경상남도 창원시 성산구 원이대로 774 311동 102호(상남동, 성원3차아파트)",35.21562293,128.6917287,ok
1171,"경상남도 창원시 진해구 안청남로 33 102동 103호(용원동, 코아루)",35.10106419,128.8067281,ok
1172,"경상남도 창원시 진해구 안청남로 33 107동 105호(용원동, 코아루)",35.10106419,128.8067281,ok
1173,"경상남도 창원시 진해구 안골로 339 108동 106호(용원동, 코아루)",35.10178408,128.8085413,ok
1174,"경상남도 창원시 진해구 안골로 339 112동 106호(용원동, 코아루)",35.10178408,128.8085413,ok
1175,"경상남도 창원시 진해구 안청남로 33 109동 103호(용원동, 코아루)",35.10106419,128.8067281,ok
1176,"경상남도 창원시 진해구 안청남로 33 109동 106호(용원동, 코아루)",35.10106419,128.8067281,ok
1177,"경상남도 창원시 진해구 안청남로 33 108동 106호(용원동, 코아루)",35.10106419,128.8067281,ok
1178,"경상남도 창원시 진해구 안청남로 33 108동 103호(용원동, 코아루)",35.10106419,128.8067281,ok
1179,"경상남도 창원시 진해구 안골로 339 110동 102호(용원동, 코아루)",35.10178408,128.8085413,ok
1180,"경상남도 창원시 진해구 안청남로 33 112동 102호(용원동, 코아루)",35.10106419,128.8067281,ok
1181,"경상남도 창원시 진해구 안청남로 33 106동 104호(용원동, 코아루)",35.10106419,128.8067281,ok
1182,"경상남도 창원시 진해구 안청남로 33 110동 104호(용원동, 코아루)",35.10106419,128.8067281,ok
1183,"경상남도 창원시 진해구 안청남로 33 109동 102호(용원동, 코아루)",35.10106419,128.8067281,ok
1184,"경상남도 창원시 진해구 안청남로 33 107동 106호(용원동, 코아루)",35.10106419,128.8067281,ok
1185,"경상남도 양산시 소주회야로 75 119동 106호(소주동, 천성리버타운)",35.41202258,129.1599633,ok
1186,경상남도 양산시 물금읍 새실로 11 713동 101호(대방노블랜드7차),35.31642333,128.9942991,ok
1187,경상남도 양산시 동면 금오16길 100 309동 105호(이지더원3차),35.32290278,129.0271851,ok
1188,"경상남도 양산시 소주회야로 75 121동 102호(소주동, 천성리버타운)",35.41202258,129.1599633,ok
1189,"경상남도 양산시 소주회야로 75 115동 102호(소주동, 천성리버타운)",35.41202258,129.1599633,ok
1190,"경상남도 양산시 대운로 354 104동101호(삼호동,대동이미지타운)",35.41657497,129.179202,ok
1191,경상남도 양산시 물금읍 물금로 41 505동 102호(양우내안애5차),35.31017261,128.9893906,ok
1192,"경상남도 양산시 소주회야로 75 125동 102호(소주동, 천성리버타운)",35.41202258,129.1599633,ok
1193,"경상남도 양산시 덕계5길 14 102동 101호(덕계동, 동일스위트2차)",35.37345216,129.1487484,ok
1194,"경상남도 양산시 소주회야로 75 114동 105호(소주동, 천성리버타운)",35.41202258,129.1599633,ok
1195,"경상남도 양산시 소주회야로 75 113동 104호(소주동, 천성리버타운)",35.41202258,129.1599633,ok
1196,"경상남도 양산시 소주회야로 75 110동 105호(소주동, 천성리버타운)",35.41202258,129.1599633,ok
1197,"경상남도 양산시 소주회야로 75 109동 105호(소주동, 천성리버타운)",35.41202258,129.1599633,ok
1198,"경상남도 양산시 소주회야로 75 113동 101호(소주동, 천성리버타운)",35.41202258,129.1599633,ok
1199,"경기도 파주시 번영로 55 112동 104호(금촌동, 새꽃마을아파트)",37.75741591,126.7660484,ok
1200,"경기도 파주시 번영로 55 102동 102호(금촌동, 새꽃마을주공뜨란채1단지아파트)",37.75741591,126.7660484,ok
1201,"경기도 파주시 번영로 55 114동 101호(금촌동, 새꽃마을주공뜨란채1단지아파트)",37.75741591,126.7660484,ok
1202,"경기도 파주시 번영로 55 104동 101호(금촌동, 새꽃마을주공뜨란채1단지아파트)",37.75741591,126.7660484,ok
1203,"경기도 파주시 번영로 55 119동 103호(금촌동, 새꽃마을주공뜨란채1단지아파트)",37.75741591,126.7660484,ok
1204,"경기도 파주시 번영로 55 109동 106호(금촌동, 새꽃마을주공뜨란채1단지아파트)",37.75741591,126.7660484,ok
1205,"경기도 파주시 번영로 55 101동 102호(금촌동, 새꽃마을아파트)",37.75741591,126.7660484,ok
1206,"경기도 파주시 번영로 55 110동 103호(금촌동, 새꽃마을주공뜨란채1단지아파트)",37.75741591,126.7660484,ok
1207,"경기도 파주시 번영로 55 104동 104호(금촌동, 새꽃마을주공뜨란채1단지아파트)",37.75741591,126.7660484,ok
1208,"경기도 파주시 번영로 55 101동 104호(금촌동, 새꽃마을아파트)",37.75741591,126.7660484,ok
1209,"경기도 파주시 번영로 55 115동 104호(금촌동, 새꽃마을주공뜨란채1단지아파트)",37.75741591,126.7660484,ok
1210,"경기도 파주시 번영로 55 106동 107호(금촌동, 새꽃마을아파트)",37.75741591,126.7660484,ok
1211,"경기도 파주시 번영로 55 120동 101호(금촌동, 새꽃마을아파트)",37.75741591,126.7660484,ok
1212,"대전광역시 서구 청사로 281 관리사무소 1층 (둔산동,샘머리아파트2단지)",36.3617828,127.3943283,ok
1213,"대전광역시 서구 청사로 281 202동 101호 (둔산동, 샘머리아파트2단지)",36.3617828,127.3943283,ok
1214,"대전광역시 서구 청사로 281 216동 102호 (둔산동, 샘머리아파트2단지)",36.3617828,127.3943283,ok
1215,"대전광역시 서구 청사로 281 206동 104호 (둔산동, 샘머리아파트2단지)",36.3617828,127.3943283,ok
1216,"대전광역시 서구 청사로 281 214동 103호 (둔산동, 샘머리아파트2단지)",36.3617828,127.3943283,ok
1217,"대전광역시 서구 청사로 281 219동 103호 (둔산동, 샘머리아파트2단지)",36.3617828,127.3943283,ok
1218,"대전광역시 서구 청사로 281 213동 102호 (둔산동, 샘머리아파트2단지)",36.3617828,127.3943283,ok
1219,"대전광역시 서구 청사로 281 210동 101호 (둔산동, 샘머리아파트2단지)",36.3617828,127.3943283,ok
1220,"대전광역시 서구 청사로 281 208동 101호 (둔산동, 샘머리아파트2단지)",36.3617828,127.3943283,ok
1221,"대전광역시 서구 청사로 281 217동 104호 (둔산동, 샘머리아파트2단지)",36.3617828,127.3943283,ok
1222,"대전광역시 서구 청사로 281 205동 101호 (둔산동, 샘머리아파트2단지)",36.3617828,127.3943283,ok
1223,"대전광역시 서구 청사로 281 221동 103호 (둔산동, 샘머리아파트2단지)",36.3617828,127.3943283,ok
1224,"대전광역시 서구 청사로 281 215동 101호 (둔산동, 샘머리아파트2단지)",36.3617828,127.3943283,ok
1225,"경기도 성남시 중원구 자혜로17번길 16 106동 108호(은행동, 현대아파트)",37.45040301,127.1623503,ok
1226,"경기도 성남시 중원구 자혜로17번길 16 105동 101호(은행동, 현대아파트)",37.45040301,127.1623503,ok
1227,"경기도 성남시 중원구 자혜로17번길 16 101동 102호(은행동, 현대아파트)",37.45040301,127.1623503,ok
1228,"경기도 성남시 중원구 자혜로17번길 16 112동 102호(은행동, 현대아파트)",37.45040301,127.1623503,ok
1229,"경기도 성남시 중원구 자혜로17번길 16 114동 108호(은행동, 현대)",37.45040301,127.1623503,ok
1230,"경기도 성남시 중원구 자혜로17번길 16 102동 107호(은행동, 현대아파트)",37.45040301,127.1623503,ok
1231,"경기도 성남시 중원구 자혜로17번길 16 105동 105호(은행동, 현대아파트)",37.45040301,127.1623503,ok
1232,"경기도 성남시 중원구 자혜로17번길 16 102동 108호(은행동, 현대아파트)",37.45040301,127.1623503,ok
1233,"경기도 성남시 중원구 자혜로17번길 16 103동 104호(은행동, 현대)",37.45040301,127.1623503,ok
1234,"경기도 성남시 중원구 자혜로17번길 16 105동 106호(은행동, 현대아파트)",37.45040301,127.1623503,ok
1235,"경기도 성남시 중원구 자혜로17번길 16 114동 104호(은행동, 현대)",37.45040301,127.1623503,ok
1236,"경기도 성남시 중원구 자혜로17번길 16 101동 101호(은행동, 현대아파트)",37.45040301,127.1623503,ok
1237,"경기도 성남시 중원구 자혜로17번길 16 101동 105호(은행동, 현대아파트)",37.45040301,127.1623503,ok
1238,"충청남도 아산시 남부로 353 105동 103호(풍기동, 동일하이빌아파트)",36.77388217,127.0230966,ok
1239,"충청남도 아산시 남부로 353 114동 106호(풍기동, 동일하이빌아파트)",36.77388217,127.0230966,ok
1240,"충청남도 아산시 남부로 353 103동 104호(풍기동, 동일하이빌아파트)",36.77388217,127.0230966,ok
1241,"충청남도 아산시 남부로 353 115동 101호(풍기동, 동일하이빌아파트)",36.77388217,127.0230966,ok
1242,"충청남도 아산시 남부로 353 118동 104호(풍기동, 동일하이빌아파트)",36.77388217,127.0230966,ok
1243,"충청남도 아산시 남부로 353 113동 106호(풍기동, 동일하이빌아파트)",36.77388217,127.0230966,ok
1244,"충청남도 아산시 남부로 353 (풍기동, 동일하이빌아파트 내)",36.77388217,127.0230966,ok
1245,"충청남도 아산시 남부로 353 103동 102호(풍기동, 동일하이빌아파트)",36.77388217,127.0230966,ok
1246,"충청남도 아산시 남부로 353 106동 102호(풍기동, 동일하이빌아파트)",36.77388217,127.0230966,ok
1247,"충청남도 아산시 남부로 353 104동 103호(풍기동, 동일하이빌아파트)",36.77388217,127.0230966,ok
1248,"충청남도 아산시 남부로 353 103동 103호(풍기동, 동일하이빌아파트)",36.77388217,127.0230966,ok
1249,"충청남도 아산시 남부로 353 101동 101호(풍기동, 동일하이빌아파트)",36.77388217,127.0230966,ok
1250,"경기도 안성시 공도읍 공도로 140 109동 104호(만정리, 디자인시티블루밍)",37.00190656,127.1756868,ok
1251,"경기도 안성시 공도읍 공도로 140 109동 103호(만정리, 디자인시티블루밍)",37.00190656,127.1756868,ok
1252,"경기도 안성시 공도읍 공도로 140 109동 102호(만정리, 디자인시티블루밍)",37.00190656,127.1756868,ok
1253,"경기도 안성시 공도읍 공도로 140 115동 103호(만정리, 디자인시티블루밍)",37.00190656,127.1756868,ok
1254,"경기도 안성시 공도읍 공도로 140 115동 102호(만정리, 디자인시티블루밍)",37.00190656,127.1756868,ok
1255,"경기도 안성시 공도읍 공도로 140 104동 102호(만정리, 디자인시티블루밍)",37.00190656,127.1756868,ok
1256,"경기도 안성시 공도읍 공도로 140 108동 102호(만정리, 디자인시티블루밍)",37.00190656,127.1756868,ok
1257,"경기도 안성시 공도읍 공도로 140 119동 102호(만정리, 디자인시티블루밍)",37.00190656,127.1756868,ok
1258,"경기도 안성시 공도읍 공도로 140 118동 104호(만정리, 디자인시티블루밍)",37.00190656,127.1756868,ok
1259,"경기도 안성시 공도읍 공도로 140 104동 103호(만정리, 디자인시티블루밍)",37.00190656,127.1756868,ok
1260,"경기도 안성시 공도읍 공도로 140 117동 103호(만정리, 디자인시티블루밍)",37.00190656,127.1756868,ok
1261,"경기도 안성시 공도읍 공도로 140 116동 103호(만정리, 디자인시티블루밍)",37.00190656,127.1756868,ok
1262,"경기도 안성시 공도읍 공도로 140 120동 102호(만정리, 디자인시티블루밍)",37.00190656,127.1756868,ok
1263,"경기도 수원시 장안구 경수대로976번길 22 146동 102호(조원동, 한일타운대림아파트)",37.30632759,127.0047182,ok
1264,"경기도 수원시 장안구 경수대로976번길 22 123동 101호(조원동, 한일타운)",37.30632759,127.0047182,ok
1265,"경기도 수원시 장안구 경수대로976번길 22 119동 105호(조원동, 한일타운)",37.30632759,127.0047182,ok
1266,"경기도 수원시 장안구 경수대로976번길 22 130동 104호(조원동, 한일타운태영아파트)",37.30632759,127.0047182,ok
1267,"경기도 수원시 장안구 경수대로976번길 22 110동 102호(조원동, 한일타운)",37.30632759,127.0047182,ok
1268,"경기도 수원시 장안구 경수대로976번길 22 127동 101호(조원동, 한일타운)",37.30632759,127.0047182,ok
1269,"경기도 수원시 장안구 경수대로976번길 22 116동 103호(조원동, 한일타운)",37.30632759,127.0047182,ok
1270,"경기도 수원시 장안구 경수대로976번길 22 151동 103호(조원동, 한일타운대림아파트)",37.30632759,127.0047182,ok
1271,"경기도 수원시 장안구 경수대로976번길 22 150동 104호(조원동, 한일타운대림아파트)",37.30632759,127.0047182,ok
1272,"경기도 수원시 장안구 경수대로976번길 22 108동 106호(조원동, 한일타운쌍용아파트)",37.30632759,127.0047182,ok
1273,"경기도 수원시 장안구 경수대로976번길 22 126동 103호(조원동, 한일타운)",37.30632759,127.0047182,ok
1274,"경기도 수원시 장안구 경수대로976번길 22 116동 106호(조원동, 한일타운우성아파트)",37.30632759,127.0047182,ok
1275,"경기도 수원시 장안구 경수대로976번길 22 133동 102호(조원동, 한일타운)",37.30632759,127.0047182,ok
1276,"경기도 파주시 후곡로 50 414동 101호(금촌동, 후곡마을주공뜨란채4단지아파트)",37.7532251,126.769121,ok
1277,"경기도 파주시 후곡로 50 411동 101호(금촌동, 후곡마을주공뜨란채4단지아파트)",37.7532251,126.769121,ok
1278,"경기도 파주시 후곡로 50 409동 106호(금촌동, 후곡마을주공뜨란채4단지아파트)",37.7532251,126.769121,ok
1279,"경기도 파주시 후곡로 50 416동 102호(금촌동, 후곡마을주공뜨란채4단지아파트)",37.7532251,126.769121,ok
1280,"경기도 파주시 후곡로 50 406동 104호(금촌동, 후곡마을아파트)",37.7532251,126.769121,ok
1281,"경기도 파주시 후곡로 50 408동 101호(금촌동, 후곡마을주공뜨란채4단지아파트)",37.7532251,126.769121,ok
1282,"경기도 파주시 후곡로 50 402동 102호(금촌동, 후곡마을주공뜨란채4단지아파트)",37.7532251,126.769121,ok
1283,"경기도 파주시 후곡로 50 411동 104호(금촌동, 후곡마을주공뜨란채4단지아파트)",37.7532251,126.769121,ok
1284,"경기도 파주시 후곡로 50 404동 105호(금촌동, 후곡마을주공뜨란채4단지아파트)",37.7532251,126.769121,ok
1285,"경기도 파주시 후곡로 50 410동 101호(금촌동, 후곡마을주공뜨란채4단지아파트)",37.7532251,126.769121,ok
1286,"경기도 파주시 후곡로 50 403동 101호(금촌동, 후곡마을주공뜨란채4단지아파트)",37.7532251,126.769121,ok
1287,"경기도 파주시 후곡로 50 409동 104호(금촌동, 후곡마을주공뜨란채4단지아파트)",37.7532251,126.769121,ok
1288,"경기도 파주시 후곡로 50 419동 104호(금촌동, 후곡마을주공뜨란채4단지아파트)",37.7532251,126.769121,ok
1289,"경기도 안산시 상록구 화랑로 495 11동 103호(성포동, 예술인아파트)",37.32269389,126.8435417,ok
1290,"경기도 안산시 상록구 화랑로 495 9동 109호(성포동, 예술인아파트)",37.32269389,126.8435417,ok
1291,"경기도 안산시 상록구 화랑로 495 5동 106호(성포동, 예술인아파트)",37.32269389,126.8435417,ok
1292,"경기도 안산시 상록구 화랑로 495 13동 103호(성포동, 예술인아파트)",37.32269389,126.8435417,ok
1293,"경기도 안산시 상록구 화랑로 495 2동 110호(성포동, 예술인아파트)",37.32269389,126.8435417,ok
1294,"경기도 안산시 상록구 화랑로 495 12동 106호(성포동, 예술인아파트)",37.32269389,126.8435417,ok
1295,"경기도 안산시 상록구 화랑로 495 10동 108호(성포동, 예술인아파트)",37.32269389,126.8435417,ok
1296,"경기도 안산시 상록구 화랑로 495 4동 104호(성포동, 예술인아파트)",37.32269389,126.8435417,ok
1297,"경기도 안산시 상록구 화랑로 495 3동 106호(성포동, 예술인아파트)",37.32269389,126.8435417,ok
1298,"경기도 안산시 상록구 화랑로 510 401동 102호(성포동,주공4단지)",37.32016074,126.8437496,ok
1299,"경기도 안산시 상록구 화랑로 495 4동 102호(성포동, 예술인아파트)",37.32269389,126.8435417,ok
1300,"경기도 안산시 상록구 화랑로 495 1동 106호(성포동, 예술인아파트)",37.32269389,126.8435417,ok
1301,"경상남도 함안군 칠원읍 삼호길 181 109동 101호(오곡리, GS메트로자이)",35.27455269,128.5237505,ok
1302,"경상남도 함안군 칠원읍 삼호길 181 105동 104호(오곡리, GS메트로자이)",35.27455269,128.5237505,ok
1303,"경상남도 함안군 칠원읍 삼호길 181 107동 101호(오곡리, GS메트로자이)",35.27455269,128.5237505,ok
1304,"경상남도 함안군 칠원읍 삼호길 181 104동 102호(오곡리, GS메트로자이)",35.27455269,128.5237505,ok
1305,"경상남도 함안군 칠원읍 삼호길 181 107동 104호(오곡리, GS메트로자이)",35.27455269,128.5237505,ok
1306,"경상남도 함안군 칠원읍 삼호길 181 117동 101호(오곡리, GS메트로자이)",35.27455269,128.5237505,ok
1307,"경상남도 함안군 칠원읍 삼호길 181 110동 105호(오곡리, GS메트로자이)",35.27455269,128.5237505,ok
1308,경상남도 함안군 칠원읍 삼호길 181 광려천메트로자이아파트 내 주민생활지원센터 1층 자이씨드어린이집,35.27455269,128.5237505,ok
1309,"경상남도 함안군 칠원읍 삼호길 181 103동 101호(오곡리, GS메트로자이)",35.27455269,128.5237505,ok
1310,"경상남도 함안군 칠원읍 삼호길 181 112동 102호(오곡리, GS메트로자이)",35.27455269,128.5237505,ok
1311,"경상남도 함안군 칠원읍 삼호길 181 106동 104호(오곡리, GS메트로자이)",35.27455269,128.5237505,ok
1312,"경상남도 함안군 칠원읍 삼호길 181 118동 102호(오곡리, GS메트로자이)",35.27455269,128.5237505,ok
1313,경기도 수원시 장안구 이목로 24 SK스카이뷰아파트 107-105,37.30937519,126.9835175,ok
1314,경기도 수원시 장안구 이목로 24 SK스카이뷰아파트 103-101,37.30937519,126.9835175,ok
1315,경기도 수원시 장안구 이목로 24 SK스카이뷰아파트 118-103,37.30937519,126.9835175,ok
1316,경기도 수원시 장안구 이목로 24 SK스카이뷰아파트 108-102,37.30937519,126.9835175,ok
1317,경기도 수원시 장안구 이목로 24 SK스카이뷰아파트 118-101,37.30937519,126.9835175,ok
1318,경기도 수원시 장안구 이목로 24 SK스카이뷰아파트 102-102,37.30937519,126.9835175,ok
1319,경기도 수원시 장안구 이목로 24 SK스카이뷰아파트 102동 103호,37.30937519,126.9835175,ok
1320,"경기도 수원시 장안구 이목로 24 118동 103호(정자동, SK스카이뷰아파트)",37.30937519,126.9835175,ok
1321,경기도 수원시 장안구 이목로 24 SK스카이뷰아파트 122-103,37.30937519,126.9835175,ok
1322,경기도 수원시 장안구 이목로 24 SK스카이뷰아파트 124-103,37.30937519,126.9835175,ok
1323,경기도 수원시 장안구 이목로 24 SK스카이뷰아파트 107-101,37.30937519,126.9835175,ok
1324,경기도 수원시 장안구 이목로 24 SK스카이뷰아파트 124-101,37.30937519,126.9835175,ok
1325,"전북특별자치도 전주시 덕진구 붓내3길 29 122동 104호(송천동2가, 주공아파트)",35.86934709,127.1246682,ok
1326,"전북특별자치도 전주시 덕진구 붓내3길 29 130동 102호(송천동2가, 주공아파트)",35.86934709,127.1246682,ok
1327,"전북특별자치도 전주시 덕진구 붓내3길 29 119동 106호(송천동2가, 주공아파트)",35.86934709,127.1246682,ok
1328,"전북특별자치도 전주시 덕진구 붓내3길 29 123동 102호(송천동2가, 주공아파트)",35.86934709,127.1246682,ok
1329,"전북특별자치도 전주시 덕진구 붓내3길 29 105동 103호(송천동2가, 주공아파트)",35.86934709,127.1246682,ok
1330,"전북특별자치도 전주시 덕진구 붓내3길 29 110동 102호(송천동2가, 주공아파트)",35.86934709,127.1246682,ok
1331,"전북특별자치도 전주시 덕진구 붓내3길 29 122동 101호(송천동2가, 주공아파트)",35.86934709,127.1246682,ok
1332,전북특별자치도 전주시 덕진구 붓내3길 29 송천주공아파트 주민복지관내 (송천동2가),35.86934709,127.1246682,ok
1333,"전북특별자치도 전주시 덕진구 붓내3길 29 126동 102호(송천동2가, 주공아파트)",35.86934709,127.1246682,ok
1334,"전북특별자치도 전주시 덕진구 붓내3길 29 122동 102호(송천동2가, 주공아파트)",35.86934709,127.1246682,ok
1335,"전북특별자치도 전주시 덕진구 붓내3길 29 112동 103호(송천동2가, 주공아파트)",35.86934709,127.1246682,ok
1336,"전북특별자치도 전주시 덕진구 붓내3길 29 130동 103호(송천동2가, 주공아파트)",35.86934709,127.1246682,ok
1337,경기도 안산시 상록구 충장로 533 주공아파트 관리동 2층 (성포동),37.32488991,126.8483988,ok
1338,"경기도 안산시 상록구 충장로 533 1121동 102호(성포동, 주공11단지아파트)",37.32488991,126.8483988,ok
1339,"경기도 안산시 상록구 충장로 533 1118동 106호(성포동, 주공11단지아파트)",37.32488991,126.8483988,ok
1340,"경기도 안산시 상록구 충장로 533 1109동 107호(성포동, 주공11단지아파트)",37.32488991,126.8483988,ok
1341,"경기도 안산시 상록구 충장로 533 1106동 102호(성포동, 주공11단지아파트)",37.32488991,126.8483988,ok
1342,"경기도 안산시 상록구 충장로 533 1115동 102호(성포동, 주공11단지아파트)",37.32488991,126.8483988,ok
1343,"경기도 안산시 상록구 충장로 533 1120동 106호(성포동, 주공11단지아파트)",37.32488991,126.8483988,ok
1344,"경기도 안산시 상록구 충장로 533 1131동 104호(성포동, 주공11단지아파트)",37.32488991,126.8483988,ok
1345,"경기도 안산시 상록구 충장로 533 1117동 108호(성포동, 주공11단지아파트)",37.32488991,126.8483988,ok
1346,"경기도 안산시 상록구 충장로 533 1112동 102호(성포동, 주공11단지아파트)",37.32488991,126.8483988,ok
1347,"경기도 안산시 상록구 충장로 533 1111동 107호(성포동, 주공11단지아파트)",37.32488991,126.8483988,ok
1348,"경기도 안산시 상록구 충장로 533 1129동 104호(성포동, 주공11단지아파트)",37.32488991,126.8483988,ok
1349,"경기도 안성시 공도읍 진사길 32 202동 103호(진사리, 주은청설아파트)",36.99082506,127.1389691,ok
1350,"경기도 안성시 공도읍 진사길 32 201동 101호(진사리, 주은청설아파트)",36.99082506,127.1389691,ok
1351,경기도 안성시 공도읍 진사길 32 주은청설아파트 관리동1층,36.99082506,127.1389691,ok
1352,"경기도 안성시 공도읍 진사길 32 106동 101호(진사리, 주은청설아파트)",36.99082506,127.1389691,ok
1353,"경기도 안성시 공도읍 진사길 32 107동 102호(진사리, 주은청설아파트)",36.99082506,127.1389691,ok
1354,"경기도 안성시 공도읍 진사길 32 108동 102호(진사리, 주은청설아파트)",36.99082506,127.1389691,ok
1355,"경기도 안성시 공도읍 진사길 32 108동 101호(진사리, 주은청설아파트)",36.99082506,127.1389691,ok
1356,"경기도 안성시 공도읍 진사길 32 104동 101호(진사리, 주은청설아파트)",36.99082506,127.1389691,ok
1357,"경기도 안성시 공도읍 진사길 32 203동 105호(진사리, 주은청설아파트)",36.99082506,127.1389691,ok
1358,"경기도 안성시 공도읍 진사길 32 107동 103호(진사리, 주은청설아파트)",36.99082506,127.1389691,ok
1359,"경기도 안성시 공도읍 진사길 32 201동 105호(진사리, 주은청설아파트)",36.99082506,127.1389691,ok
1360,"경기도 안성시 공도읍 진사길 32 203동 103호(진사리, 주은청설아파트)",36.99082506,127.1389691,ok
1361,"경기도 수원시 영통구 영통로 498 131동 101호 (영통동, 황골마을주공1단지아파트)",37.26321701,127.0785399,ok
1362,"경기도 수원시 영통구 영통로 498 141동 103호 (영통동, 황골마을주공1단지아파트)",37.26321701,127.0785399,ok
1363,"경기도 수원시 영통구 영통로 498 143동 106호 (영통동, 황골마을주공1단지아파트)",37.26321701,127.0785399,ok
1364,"경기도 수원시 영통구 영통로 498 관리동 (영통동, 황골마을주공1단지아파트)",37.26321701,127.0785399,ok
1365,"경기도 수원시 영통구 영통로 498 139동 101호 (영통동, 황골마을주공1단지아파트)",37.26321701,127.0785399,ok
1366,"경기도 수원시 영통구 영통로 498 145동 104호 (영통동, 황골마을주공1단지아파트)",37.26321701,127.0785399,ok
1367,"경기도 수원시 영통구 영통로 498 136동 103호 (영통동, 황골마을주공1단지아파트)",37.26321701,127.0785399,ok
1368,"경기도 수원시 영통구 영통로 498 140동 106호 (영통동, 황골마을주공1단지아파트)",37.26321701,127.0785399,ok
1369,"경기도 수원시 영통구 영통로 498 145동 101호 (영통동, 황골마을주공1단지아파트)",37.26321701,127.0785399,ok
1370,"경기도 수원시 영통구 영통로 498 159동 102호 (영통동, 황골마을주공1단지아파트)",37.26321701,127.0785399,ok
1371,"경기도 수원시 영통구 영통로 498 158동 104호 (영통동, 황골마을주공1단지아파트)",37.26321701,127.0785399,ok
1372,"경기도 수원시 영통구 영통로 498 144동 103호 (영통동, 황골마을주공1단지아파트)",37.26321701,127.0785399,ok
1373,경기도 안성시 공도읍 공도로 150 104동103호(KCC스위첸아파트),37.00169031,127.1770085,ok
1374,경기도 안성시 공도읍 공도로 150 KCC스위첸 아파트 105동 103호,37.00169031,127.1770085,ok
1375,"경기도 안성시 공도로 150 106동 103호(만정리, KCC스위첸)",37.00169031,127.1770085,ok
1376,"경기도 안성시 공도읍 공도로 150 104동102호(만정리,kcc스위첸아파트 )",37.00169031,127.1770085,ok
1377,경기도 안성시 공도읍 공도로 150 KCC스위첸 아파트 107동 102호,37.00169031,127.1770085,ok
1378,경기도 안성시 공도읍 공도로 150 KCC 스위첸 아파트 106동 101호,37.00169031,127.1770085,ok
1379,경기도 안성시 공도읍 공도로 150 KCC 스위첸 아파트 102동 102호,37.00169031,127.1770085,ok
1380,경기도 안성시 공도읍 공도로 150 108동101호(KCC스위첸아파트),37.00169031,127.1770085,ok
1381,경기도 안성시 공도읍 공도로 150 102동103호(KCC스위첸아파트),37.00169031,127.1770085,ok
1382,경기도 안성시 공도읍 공도로 150 KCC 스위첸 아파트 102동 104호,37.00169031,127.1770085,ok
1383,경기도 안성시 공도읍 공도로 150 KCC 스위첸 아파트 114동 101호,37.00169031,127.1770085,ok
1384,경기도 안성시 공도읍 공도로 150 KCC 스위첸 아파트 관리동,37.00169031,127.1770085,ok
1385,"경상남도 창원시 진해구 충장로 575 110동 103호(풍호동, 우성아파트)",35.1379688,128.7027353,ok
1386,"경상남도 창원시 진해구 충장로 575 109동 111호(풍호동, 우성아파트)",35.1379688,128.7027353,ok
1387,"경상남도 창원시 진해구 천자로 386 107동 103호(풍호동, 마린푸르지오1단지)",35.13443572,128.7045746,ok
1388,"경상남도 창원시 진해구 충장로 575 119동 106호(풍호동, 우성아파트)",35.1379688,128.7027353,ok
1389,"경상남도 창원시 진해구 충장로 575 110동 102호(풍호동, 우성아파트)",35.1379688,128.7027353,ok
1390,"경상남도 창원시 진해구 충장로 575 108동 110호(풍호동, 우성아파트)",35.1379688,128.7027353,ok
1391,"경상남도 창원시 진해구 충장로 575 108동 111호(풍호동, 우성아파트)",35.1379688,128.7027353,ok
1392,"경상남도 창원시 진해구 충장로 575 110동 106호(풍호동, 우성아파트)",35.1379688,128.7027353,ok
1393,"경상남도 창원시 진해구 충장로 575 112동 110호(풍호동, 우성아파트)",35.1379688,128.7027353,ok
1394,"경상남도 창원시 진해구 충장로 575 116동 105호(풍호동, 우성아파트)",35.1379688,128.7027353,ok
1395,"경상남도 창원시 진해구 충장로 575 107동 102호(풍호동, 우성아파트)",35.1379688,128.7027353,ok
1396,"경상남도 창원시 진해구 충장로 575 115동 101호(풍호동, 우성아파트)",35.1379688,128.7027353,ok
1397,경기도 의정부시 동일로 660 신도브래뉴업 아파트 관리동 1층,37.74737527,127.0541615,ok
1398,"경기도 의정부시 동일로 660 201동 101호(금오동, 금오2차신도브래뉴UP아파트)",37.74737527,127.0541615,ok
1399,"경기도 의정부시 동일로 660 210동 104호(금오동, 금오2차신도브래뉴UP아파트)",37.74737527,127.0541615,ok
1400,"경기도 의정부시 동일로 660 202동 104호(금오동, 금오2차신도브래뉴UP아파트)",37.74737527,127.0541615,ok
1401,"경기도 의정부시 동일로 660 202동 101호(금오동, 금오2차신도브래뉴UP아파트)",37.74737527,127.0541615,ok
1402,"경기도 의정부시 동일로 660 209동 103호(금오동, 금오2차신도브래뉴UP아파트)",37.74737527,127.0541615,ok
1403,"경기도 의정부시 동일로 660 206동 103호(금오동, 금오2차신도브래뉴UP아파트)",37.74737527,127.0541615,ok
1404,"경기도 의정부시 동일로 660 204동 101호(금오동, 금오2차신도브래뉴UP아파트)",37.74737527,127.0541615,ok
1405,"경기도 의정부시 동일로 660 210동 103호(금오동, 금오2차신도브래뉴UP아파트)",37.74737527,127.0541615,ok
1406,"경기도 의정부시 동일로 660 204동 102호(금오동, 금오2차신도브래뉴UP아파트)",37.74737527,127.0541615,ok
1407,"경기도 의정부시 동일로 660 212동 101호(금오동, 금오2차신도브래뉴UP아파트)",37.74737527,127.0541615,ok
1408,"경기도 의정부시 동일로 660 206동 102호(금오동, 금오2차신도브래뉴UP아파트)",37.74737527,127.0541615,ok
1409,"경상남도 김해시 진영읍 김해대로361번길 31 316동 101호(진영리, 진영자이)",35.30906213,128.7284535,ok
1410,"경상남도 김해시 진영읍 김해대로361번길 31 310동 103호(진영리, 진영자이)",35.30906213,128.7284535,ok
1411,"경상남도 김해시 진영읍 김해대로361번길 31 311동 106호(진영리, 진영자이)",35.30906213,128.7284535,ok
1412,"경상남도 김해시 진영읍 김해대로361번길 31 308동 102호(진영리, 진영자이)",35.30906213,128.7284535,ok
1413,"경상남도 김해시 진영읍 김해대로361번길 31 305동 103호(진영리, 진영자이)",35.30906213,128.7284535,ok
1414,경상남도 김해시 진영읍 김해대로361번길 31 310동 104호(진영자이아파트),35.30906213,128.7284535,ok
1415,경상남도 김해시 진영읍 김해대로361번길 31 경남 김해시 진영읍 김해대로 361번길 31 자이아파트  복리동 1층,35.31032803,128.7289339,ok
1416,"경상남도 김해시 진영읍 김해대로361번길 31 312동 103호(진영리, 진영자이)",35.30906213,128.7284535,ok
1417,"경상남도 김해시 진영읍 김해대로361번길 31 309동 102호(진영리, 진영자이)",35.30906213,128.7284535,ok
1418,"경상남도 김해시 진영읍 김해대로361번길 31 303동 102호(진영리, 진영자이)",35.30906213,128.7284535,ok
1419,"경상남도 김해시 진영읍 김해대로361번길 31 311동 101호(진영리, 진영자이)",35.30906213,128.7284535,ok
1420,"경상남도 김해시 진영읍 김해대로361번길 31 307동 104호(진영리, 진영자이)",35.30906213,128.7284535,ok
1421,"경기도 안산시 단원구 선부광장남로 111 1204동 108호(선부동, 군자주공12단지아파트)",37.32882602,126.8103194,ok
1422,"경기도 안산시 단원구 선부광장남로 111 1113동 103호(선부동, 군자주공11단지아파트)",37.32882602,126.8103194,ok
1423,"경기도 안산시 단원구 선부광장남로 111 1113동 105호(선부동, 군자주공11단지아파트)",37.32882602,126.8103194,ok
1424,"경기도 안산시 단원구 선부광장남로 111 1115동 103호(선부동, 군자주공11단지아파트)",37.32882602,126.8103194,ok
1425,"경기도 안산시 단원구 선부광장남로 111 1206동 107호(선부동, 군자주공12단지아파트)",37.32882602,126.8103194,ok
1426,"경기도 안산시 단원구 선부광장남로 111 1202동 101호(선부동, 군자주공12단지아파트)",37.32882602,126.8103194,ok
1427,"경기도 안산시 단원구 선부광장남로 111 1203동 112호(선부동, 군자주공12단지아파트)",37.32882602,126.8103194,ok
1428,"경기도 안산시 단원구 선부광장남로 111 1202동 112호(선부동, 군자주공12단지아파트)",37.32882602,126.8103194,ok
1429,"경기도 안산시 단원구 선부광장남로 111 1103동 104호(선부동, 군자주공11단지아파트)",37.32882602,126.8103194,ok
