,정보공시 학교코드,학교명,1학년 학생수,학교도로명 주소,위도,경도
0,S000003511,서울교육대학교부설초등학교,95,서울특별시 서초구 서초중앙로 96,37.4907391344,127.0154235196
1,S000003563,서울대학교사범대학부설초등학교,98,서울특별시 종로구 대학로 64,37.577017,127.003091
2,S010000738,서울개일초등학교,157,서울특별시 강남구 개포로 401,37.4862137836,127.057741991
3,S010000741,서울구룡초등학교,121,서울특별시 강남구 개포로 263,37.4811925344,127.0517549252
4,S010000742,서울논현초등학교,52,서울특별시 강남구 강남대로120길 33,37.5081699,127.0260317
5,S010000743,서울대곡초등학교,116,서울특별시 강남구 남부순환로 3022,37.4947119051,127.0650264667
6,S010000744,서울대도초등학교,260,서울특별시 강남구 선릉로 209,37.4927679777,127.0533460132
7,S010000745,서울대모초등학교,135,서울특별시 강남구 광평로20길 27,37.481536,127.086562
8,S010000746,서울대왕초등학교,96,서울특별시 강남구 헌릉로618길 8,37.4646213557,127.1055894642
9,S010000747,서울대진초등학교,42,서울특별시 강남구 개포로109길 74,37.4970105766,127.0780784792
10,S010000748,서울대청초등학교,23,서울특별시 강남구 양재대로55길 28,37.4931330378,127.0877856874
11,S010000749,서울대치초등학교,161,서울특별시 강남구 양재천로 363,37.4913113474,127.06196593
12,S010000750,서울대현초등학교,79,서울특별시 강남구 역삼로98길 16,37.5032941,127.0633241
13,S010000751,서울도곡초등학교,115,서울특별시 강남구 선릉로64길 33,37.4995070056,127.0544455072
14,S010000752,서울도성초등학교,229,서울특별시 강남구 역삼로 313,37.501462823,127.0488737626
15,S010000753,서울반원초등학교,193,서울특별시 서초구 잠원로3길 28,37.5102082,127.0039023
16,S010000754,서울반포초등학교,114,서울특별시 서초구 신반포로 55-4,37.502916,126.991055
17,S010000755,서울방배초등학교,121,서울특별시 서초구 방배중앙로13길 26,37.4867641943,126.9871371947
18,S010000756,서울방일초등학교,153,서울특별시 서초구 방배로18길 52,37.485434,126.998303216
19,S010000757,서울방현초등학교,33,서울특별시 서초구 효령로4길 58,37.4763718,126.9901785
20,S010000758,서울봉은초등학교,78,서울특별시 강남구 학동로 610,37.5200827812,127.0609309129
21,S010000759,서울삼릉초등학교,91,서울특별시 강남구 봉은사로63길 22,37.5132595599,127.0469495418
22,S010000760,서울서래초등학교,209,서울특별시 서초구 방배로 260,37.4962335,126.9893029
23,S010000761,서울서원초등학교,225,서울특별시 서초구 고무래로 63,37.4962335,127.0153843
24,S010000762,서울서이초등학교,214,서울특별시 서초구 서운로 35,37.4913032,127.0259307
25,S010000763,서울서일초등학교,92,서울특별시 서초구 남부순환로339길 38,37.4852959747,127.0221612207
26,S010000764,서울서초초등학교,157,서울특별시 서초구 서운로 178,37.499311,127.024064
27,S010000765,서울수서초등학교,21,서울특별시 강남구 광평로51길 46,37.4909352,127.1014041
28,S010000766,서울신구초등학교,69,서울특별시 강남구 압구정로18길 28,37.5233612951,127.023991523
29,S010000767,서울신동초등학교,185,서울특별시 서초구 나루터로 15,37.5171282419,127.0113884649
30,S010000768,서울신중초등학교,138,서울특별시 서초구 남부순환로317길 15,37.48001,127.009623
31,S010000769,서울압구정초등학교,144,서울특별시 강남구 압구정로39길 29,37.5316708,127.031165
32,S010000770,서울양재초등학교,105,서울특별시 서초구 바우뫼로18길 14,37.4741644827,127.0318938581
33,S010000771,서울양전초등학교,87,서울특별시 강남구 개포로 513,37.4902924,127.0693775
34,S010000772,서울언남초등학교,237,서울특별시 서초구 헌릉로8길 42,37.454144,127.0617
35,S010000773,서울언북초등학교,282,서울특별시 강남구 삼성로135길 42,37.519926,127.0451
36,S010000774,서울언주초등학교,229,서울특별시 강남구 남부순환로363길 19,37.4866567,127.0371605
37,S010000775,서울역삼초등학교,65,서울특별시 강남구 강남대로66길 21,37.4931611542,127.0326030259
38,S010000776,서울영희초등학교,42,서울특별시 강남구 일원로 21,37.4923016605,127.0811312059
39,S010000777,서울왕북초등학교,123,서울특별시 강남구 광평로31길 74,37.4864367029,127.0860405977
40,S010000778,서울우암초등학교,40,서울특별시 서초구 바우뫼로7길 38,37.4722959087,127.0237219645
41,S010000779,서울원명초등학교,204,서울특별시 서초구 고무래로 90-6,37.5007761754,127.0167057717
42,S010000780,서울원촌초등학교,175,서울특별시 서초구 사평대로45길 26,37.5061857,127.0124612
43,S010000781,서울이수초등학교,86,서울특별시 서초구 방배천로4길 23,37.4783700689,126.9844162207
44,S010000782,서울일원초등학교,77,서울특별시 강남구 영동대로4길 20,37.489789251,127.0763250966
45,S010000783,서울잠원초등학교,201,서울특별시 서초구 신반포로16길 15-25,37.50188,126.99767
46,S010000784,서울청담초등학교,87,서울특별시 강남구 압구정로71길 9,37.5279725,127.0452701
47,S010000785,서울포이초등학교,85,서울특별시 강남구 개포로22길 87,37.475962,127.052079
48,S010000786,서울학동초등학교,90,서울특별시 강남구 선릉로115길 42,37.5120656487,127.0398094287
49,S010000897,서울가동초등학교,135,서울특별시 송파구 중대로20길 47,37.4974117311,127.1300168827
50,S010000898,서울가락초등학교,201,서울특별시 송파구 송파대로37길 45,37.5000219623,127.1076025279
51,S010000899,서울가원초등학교,116,서울특별시 송파구 중대로4길 8,37.4894409751,127.1110293103
52,S010000900,서울가주초등학교,138,서울특별시 송파구 오금로40길 37,37.4965655863,127.1292871524
53,S010000901,서울강덕초등학교,207,서울특별시 강동구 동남로82길 94-54,37.5595469338,127.1604840335
54,S010000902,서울강동초등학교,73,서울특별시 강동구 상암로14길 77,37.5463647928,127.130187858
55,S010000903,서울강일초등학교,95,서울특별시 강동구 아리수로98길 24,37.56535,127.17733
56,S010000904,서울거여초등학교,94,서울특별시 송파구 마천로25길 18,37.5051658292,127.1409736264
57,S010000905,서울거원초등학교,148,서울특별시 송파구 양산로2길 26,37.487601,127.144669
58,S010000906,서울고덕초등학교,82,서울특별시 강동구 아리수로82길 42,37.560723,127.166557
59,S010000907,서울고명초등학교,143,서울특별시 강동구 고덕로46길 53,37.5529722545,127.1474373336
60,S010000908,서울고일초등학교,343,서울특별시 강동구 구천면로93길 20,37.5515408195,127.169411611
61,S010000909,서울길동초등학교,142,서울특별시 강동구 양재대로116길 69,37.5385917666,127.1449740741
62,S010000910,서울남천초등학교,58,서울특별시 송파구 성내천로 207,37.501176,127.150731
63,S010000911,서울대명초등학교,119,서울특별시 강동구 상암로 271,37.547292,127.153243
64,S010000913,서울마천초등학교,108,서울특별시 송파구 마천로61다길 24,37.4955069831,127.1526301317
65,S010000914,서울명덕초등학교,349,서울특별시 강동구 양재대로156길 11,37.5567629637,127.1450817026
66,S010000915,서울명원초등학교,107,서울특별시 강동구 명일로 364,37.5512889333,127.1504985792
67,S010000916,서울명일초등학교,175,서울특별시 강동구 고덕로38길 8,37.5545423636,127.1425695083
68,S010000917,서울묘곡초등학교,257,서울특별시 강동구 동남로79길 46,37.558201,127.153231
69,S010000918,서울문덕초등학교,103,서울특별시 송파구 송이로34길 60,37.485326,127.127395
70,S010000919,서울문정초등학교,100,서울특별시 송파구 문정로5길 20,37.4890731161,127.1290119087
71,S010000920,서울방산초등학교,95,서울특별시 송파구 오금로27길 42,37.509493,127.121066
72,S010000921,서울방이초등학교,99,서울특별시 송파구 위례성대로10길 4,37.513554,127.12094
73,S010000922,서울삼전초등학교,135,서울특별시 송파구 백제고분로28길 19,37.501622,127.092467
74,S010000923,서울상일초등학교,27,서울특별시 강동구 천호대로 1477,37.5475717228,127.172661674
75,S010000924,서울석촌초등학교,125,서울특별시 송파구 가락로11길 26,37.5027584,127.1048724
76,S010000925,서울선린초등학교,89,서울특별시 강동구 진황도로61길 29,37.52921,127.145793
77,S010000926,서울선사초등학교,98,서울특별시 강동구 올림픽로 837,37.555849064,127.1282034414
78,S010000927,서울성내초등학교,145,서울특별시 강동구 성내로3길 19,37.5313587603,127.1225001414
79,S010000928,서울성일초등학교,202,서울특별시 강동구 성내로15길 33,37.5291763,127.1283603
80,S010000929,서울세륜초등학교,93,서울특별시 송파구 양재대로 1264,37.518634,127.133564
81,S010000930,서울송전초등학교,147,서울특별시 송파구 석촌호수로 159,37.5088156601,127.0951331162
82,S010000931,서울송파초등학교,99,서울특별시 송파구 백제고분로 400,37.5071366477,127.1111188494
83,S010000932,서울신가초등학교,115,서울특별시 송파구 송이로 75,37.5003633354,127.1198800802
84,S010000933,서울신명초등학교,58,서울특별시 강동구 명일로24길 33,37.5409425176,127.1499889666
85,S010000934,서울신암초등학교,131,서울특별시 강동구 올림픽로93길 33-16,37.5500218719,127.1244046929
86,S010000935,서울신천초등학교,72,서울특별시 송파구 올림픽로 215,37.5139983139,127.0950356325
87,S010000936,서울아주초등학교,73,서울특별시 송파구 올림픽로4길 59,37.5058275216,127.0757668819
88,S010000937,서울영풍초등학교,59,서울특별시 송파구 오금로57길 15,37.496221799,127.1430149379
89,S010000938,서울오금초등학교,110,서울특별시 송파구 위례성대로22길 11,37.5093861683,127.1315713354
90,S010000939,서울오륜초등학교,64,서울특별시 송파구 양재대로 1196,37.5124246492,127.1345084357
91,S010000941,서울잠동초등학교,118,서울특별시 송파구 올림픽로35길 122,37.518515,127.100041
92,S010000942,서울잠신초등학교,230,서울특별시 송파구 잠실로 32,37.5141479659,127.0879460292
93,S010000943,서울잠실초등학교,188,서울특별시 송파구 올림픽로35길 20,37.5201684001,127.1115046807
94,S010000944,서울잠일초등학교,254,서울특별시 송파구 올림픽로 95,37.5147399506,127.081635084
95,S010000945,서울잠전초등학교,70,서울특별시 송파구 올림픽로12길 51,37.5073393539,127.0838483213
96,S010000946,서울중대초등학교,174,서울특별시 송파구 송파대로36길 8,37.4998109131,127.1136050041
97,S010000947,서울천동초등학교,139,서울특별시 강동구 성안로 200,37.541015002,127.1378275942
98,S010000948,서울천일초등학교,47,서울특별시 강동구 구천면로 266,37.5443609471,127.1334387548
99,S010000949,서울천호초등학교,113,서울특별시 강동구 구천면로 310-11,37.5477198694,127.1365906345
100,S010000950,서울토성초등학교,103,서울특별시 송파구 풍성로20길 44,37.5318810579,127.1156312759
101,S010000951,서울평화초등학교,31,서울특별시 송파구 송파대로26길 22,37.491587,127.122669
102,S010000952,서울풍납초등학교,73,서울특별시 송파구 풍성로 43,37.5350864091,127.1178673953
103,S010000953,서울풍성초등학교,65,서울특별시 송파구 강동대로2길 13,37.5262933266,127.1134867705
104,S010000954,서울한산초등학교,105,서울특별시 강동구 풍성로 261,37.5280147,127.1414269
105,S010001004,서울가곡초등학교,131,서울특별시 강서구 공항대로36길 74,37.5557076032,126.8361018296
106,S010001005,서울가양초등학교,35,서울 강서구 허준로 186,37.5622165608,126.8585205401
107,S010001006,서울갈산초등학교,128,서울특별시 양천구 목동로 31,37.5119893354,126.8697989184
108,S010001007,서울강서초등학교,194,서울특별시 양천구 오목로 31,37.5224133541,126.8409892172
109,S010001008,서울강신초등학교,121,서울특별시 양천구 월정로 280,37.543019,126.8292741
110,S010001009,서울강월초등학교,102,서울특별시 양천구 신월로 97,37.5163409961,126.833432503
111,S010001010,서울개화초등학교,10,서울특별시 강서구 양천로 11,37.573669,126.804339
112,S010001011,서울경인초등학교,136,서울특별시 양천구 안양천로 1009,37.5328698484,126.8856977141
113,S010001012,서울계남초등학교,103,서울특별시 양천구 목동동로2길 54,37.5101693827,126.860016811
114,S010001013,서울공진초등학교,343,서울특별시 강서구 마곡서로 33,37.5578288729,126.8226110323
115,S010001014,서울공항초등학교,282,서울특별시 강서구 마곡서1로 68,37.563089237,126.8216478084
116,S010001015,서울남명초등학교,74,서울특별시 양천구 중앙로23길 3,37.5156835515,126.8540839052
117,S010001016,서울내발산초등학교,202,서울특별시 강서구 강서로46길 23,37.5515619,126.8379003
118,S010001017,서울등명초등학교,16,서울특별시 강서구 강서로56나길 34,37.56088,126.842329
119,S010001018,서울등서초등학교,39,서울특별시 강서구 화곡로58길 86,37.5518833087,126.8550363979
120,S010001019,서울등양초등학교,28,서울특별시 강서구 강서로56나길 140,37.5648029,126.8446617
121,S010001020,서울등원초등학교,32,서울특별시 강서구 화곡로65길 90,37.560326,126.850073
122,S010001021,서울등촌초등학교,94,서울특별시 강서구 등촌로39길 71,37.5476125061,126.8579416012
123,S010001022,서울등현초등학교,102,서울특별시 강서구 화곡로65길 124,37.5613697,126.8480367
124,S010001023,서울목동초등학교,190,서울특별시 양천구 목동동로12길 12,37.5228079602,126.8721200895
125,S010001024,서울목원초등학교,46,서울특별시 양천구 목동중앙로 204,37.5429362307,126.8824461323
126,S010001025,서울발산초등학교,149,서울특별시 강서구 강서로45길 113,37.550352,126.831075
127,S010001026,서울방화초등학교,97,서울특별시 강서구 양천로6길 92,37.568847,126.806877
128,S010001027,서울백석초등학교,98,서울특별시 강서구 공항대로 491,37.55357,126.86221
129,S010001028,서울삼정초등학교,41,서울특별시 강서구 금낭화로 222,37.5805078932,126.8104934611
130,S010001029,서울서정초등학교,127,서울특별시 양천구 목동로8길 19,37.523451293,126.8672365194
131,S010001030,서울송정초등학교,117,서울특별시 강서구 공항대로3길 18,37.562177,126.810898
132,S010001031,서울송화초등학교,200,서울특별시 강서구 방화대로34길 2,37.5681509143,126.8180316932
133,S010001032,서울신강초등학교,79,서울특별시 양천구 중앙로55길 72,37.526093,126.841651
134,S010001033,서울신곡초등학교,106,서울특별시 강서구 등촌로13자길 42-14,37.538577,126.855847
135,S010001034,서울신남초등학교,158,서울특별시 양천구 남부순환로83길,37.515897,126.844706
136,S010001035,서울신목초등학교,124,서울특별시 양천구 신목로5길 11-6,37.516832,126.872897
137,S010001036,서울신서초등학교,193,서울특별시 양천구 목동서로10길 35,37.5205588676,126.8623322121
138,S010001037,서울신원초등학교,78,서울특별시 양천구 남부순환로58길 32,37.5295157615,126.829864378
139,S010001038,서울신월초등학교,103,서울특별시 강서구 강서로31길 48,37.539986,126.839029
140,S010001039,서울신정초등학교,205,서울특별시 강서구 곰달래로31가길 27,37.5320724314,126.8523594393
141,S010001040,서울양강초등학교,75,서울특별시 양천구 오목로 101,37.5236040288,126.8474800727
142,S010001041,서울양동초등학교,53,서울특별시 양천구 오목로23길 24,37.526147,126.851111
143,S010001042,서울양명초등학교,81,서울특별시 양천구 중앙로 204,37.516375041,126.856634416
144,S010001043,서울양목초등학교,113,서울특별시 양천구 목동로11길 30,37.523916796,126.8614708124
145,S010001044,서울양원초등학교,43,서울특별시 양천구 화곡로 16,37.5382166977,126.8231055651
146,S010001045,서울양천초등학교,52,서울특별시 강서구 양천로 329,37.570127,126.839551
147,S010001046,서울양화초등학교,108,서울특별시 양천구 목동중앙북로16길 57,37.5436699282,126.8739854761
148,S010001048,서울염동초등학교,168,서울특별시 강서구 양천로73길 17,37.5520943077,126.8723507246
149,S010001049,서울염창초등학교,135,서울특별시 강서구 양천로 646-28,37.5532243333,126.8676001873
150,S010001050,서울영도초등학교,160,서울특별시 양천구 목동중앙로 70,37.5358029752,126.8720062563
151,S010001051,서울우장초등학교,139,서울특별시 강서구 화곡로 263,37.5496373729,126.8459830632
152,S010001052,서울월정초등학교,151,서울특별시 강서구 월정로 176,37.534313,126.836186
153,S010001053,서울월촌초등학교,151,서울특별시 양천구 목동중앙로 132,37.5406954304,126.8762580281
154,S010001054,서울은정초등학교,50,서울특별시 양천구 목동남로 85,37.5111289634,126.8670457082
155,S010001055,서울정곡초등학교,24,서울특별시 강서구 방화대로50길 22,37.5769604177,126.8189340166
156,S010001056,서울정목초등학교,137,서울특별시 양천구 목동중앙로3길 30-10,37.5365297488,126.8700510053
157,S010001057,서울지향초등학교,108,서울특별시 양천구 신정로11길 74,37.5133162,126.8373891
158,S010001058,서울치현초등학교,79,서울특별시 강서구 방화대로47길 43,37.5759194191,126.8146438346
159,S010001059,서울탑산초등학교,85,서울특별시 강서구 허준로 109,37.567016739,126.852367467
160,S010001060,서울화곡초등학교,152,서울특별시 강서구 초록마을로 28,37.543669796,126.8464705934
161,S010001061,유석초등학교,60,서울특별시 강서구 화곡로69길 9,37.5608016256,126.8537786529
162,S010001197,동광초등학교,91,서울특별시 금천구 탑골로10길 45,37.451985,126.916713
163,S010001198,서울가산초등학교,52,서울특별시 금천구 남부순환로 1304-11,37.478125,126.896445
164,S010001199,서울개명초등학교,58,서울특별시 구로구 개봉로1다길 16-9,37.482999,126.850268
165,S010001200,서울개봉초등학교,176,서울특별시 구로구 개봉로16길 30-11,37.4895231088,126.8579747911
166,S010001201,서울개웅초등학교,90,서울특별시 구로구 개봉로11길 98,37.488572582,126.8499846408
167,S010001202,서울고산초등학교,62,서울특별시 구로구 중앙로 6,37.498973633,126.864773838
168,S010001203,서울고척초등학교,44,서울특별시 구로구 경서로 31,37.500946667,126.8569805744
169,S010001204,서울구로남초등학교,73,서울특별시 구로구 디지털로27길 76,37.4854394,126.890974
170,S010001205,서울구로초등학교,62,서울특별시 구로구 구로중앙로27나길 9,37.497058,126.886245
171,S010001206,서울구일초등학교,178,서울특별시 구로구 구일로 68,37.4931916033,126.8734732749
172,S010001207,서울금산초등학교,45,서울특별시 금천구 시흥대로24길 57,37.441305,126.907937
173,S010001208,서울금천초등학교,25,서울특별시 금천구 탑골로5길 60,37.454978,126.912769
174,S010001209,서울당산초등학교,55,서울특별시 영등포구 선유로55길 32,37.5401200198,126.896241292
175,S010001210,서울당서초등학교,217,서울특별시 영등포구 당산로 187,37.5320285188,126.899814084
176,S010001211,서울당중초등학교,105,서울특별시 영등포구 선유로 131,37.526186,126.890007
177,S010001212,서울대길초등학교,80,서울특별시 영등포구 대방천로 206,37.498204,126.913454
178,S010001213,서울대동초등학교,61,서울특별시 영등포구 대림로21길 6,37.493703679,126.9001185985
179,S010001214,서울대방초등학교,269,서울특별시 영등포구 여의대방로35길 14,37.5030997138,126.9194452013
180,S010001215,서울대영초등학교,176,서울특별시 영등포구 신길로23길 43,37.502647,126.905936
181,S010001216,서울덕의초등학교,158,서울특별시 구로구 고척로 213,37.5062766,126.8567988
182,S010001217,서울도림초등학교,64,서울특별시 영등포구 가마산로65길 22,37.508680497,126.9071155364
183,S010001218,서울도신초등학교,38,서울특별시 영등포구 도림로53길 32-9,37.4992687949,126.9007128171
184,S010001219,서울독산초등학교,88,서울특별시 금천구 시흥대로104길 31,37.465365,126.899965
185,S010001220,서울동구로초등학교,68,서울특별시 구로구 구로중앙로14길 43,37.4948704144,126.8927683269
186,S010001221,서울두산초등학교,101,서울특별시 금천구 범안로11길 3,37.4675482979,126.8909473748
187,S010001222,서울매봉초등학교,39,서울특별시 구로구 고척로21길 55,37.50479,126.844402
188,S010001223,서울문교초등학교,56,서울특별시 금천구 독산로54길 102,37.4665726,126.908881
189,S010001224,서울문래초등학교,180,서울특별시 영등포구 문래로 104,37.518471,126.893229
190,S010001225,서울문백초등학교,100,서울특별시 금천구 시흥대로47길 43-1,37.4470769893,126.89869793
191,S010001226,서울문성초등학교,39,서울특별시 금천구 시흥대로 460,37.4744862609,126.8992759455
192,S010001227,서울미래초등학교,110,서울특별시 구로구 새말로 73,37.5051068276,126.8880789065
193,S010001228,서울백산초등학교,39,서울특별시 금천구 시흥대로38길 78,37.447032,126.904917
194,S010001229,서울세곡초등학교,96,서울특별시 구로구 고척로33길 34,37.5050562821,126.849119269
195,S010001230,서울시흥초등학교,76,서울특별시 금천구 독산로23길 26,37.455338819,126.9046408024
196,S010001231,서울신구로초등학교,68,서울특별시 구로구 가마산로27길 69,37.4996591332,126.8897652795
197,S010001232,서울신대림초등학교,73,서울특별시 영등포구 대림로8길 25,37.4918204,126.9057565
198,S010001233,서울신도림초등학교,217,서울특별시 구로구 신도림로19길 44,37.5123256,126.8833965
199,S010001234,서울신미림초등학교,139,서울특별시 구로구 신도림로 26,37.5071419202,126.8795526272
200,S010001235,서울신영초등학교,80,서울특별시 영등포구 도신로4길 32,37.5010055678,126.8960964009
201,S010001236,서울신흥초등학교,108,서울특별시 금천구 독산로36나길 21,37.4593466248,126.9093512555
202,S010001237,서울안천초등학교,30,서울특별시 금천구 한내로 69-16,37.4585983,126.8884707
203,S010001238,서울여의도초등학교,183,서울특별시 영등포구 여의대방로 439,37.5232062635,126.9367950045
204,S010001239,서울영남초등학교,29,서울특별시 금천구 문성로 62-15,37.475435,126.909864
205,S010001240,서울영동초등학교,90,서울특별시 영등포구 국회대로53길 20,37.52653,126.907419
206,S010001241,서울영등포초등학교,54,서울특별시 영등포구 경인로 756,37.5129475656,126.8982605917
207,S010001242,서울영림초등학교,34,서울특별시 영등포구 시흥대로173길 14,37.48744,126.902652
208,S010001243,서울영서초등학교,117,서울특별시 구로구 도림로20길 57,37.4883984,126.8947321
209,S010001244,서울영신초등학교,127,서울특별시 영등포구 도신로60길 23,37.509809701,126.9184290999
210,S010001245,서울영원초등학교,99,서울특별시 영등포구 도영로 22길 31,37.510888,126.902189
211,S010001246,서울영일초등학교,34,서울특별시 구로구 남부순환로105길 218,37.4856445741,126.8838113655
212,S010001247,서울영중초등학교,76,서울특별시 영등포구 양산로 185,37.523798,126.9039299
213,S010001248,서울오류남초등학교,123,서울특별시 구로구 서해안로24길 22,37.4896863391,126.8391137443
214,S010001249,서울오류초등학교,110,서울특별시 구로구 경인로19길 39,37.498249,126.842191
215,S010001250,서울오정초등학교,59,서울특별시 구로구 경인로2길 10,37.489698,126.826203
216,S010001251,서울온수초등학교,142,서울특별시 구로구 부일로 893,37.494168,126.826022
217,S010001252,서울우신초등학교,36,서울특별시 영등포구 신길로 190,37.5092628,126.9117832
218,S010001253,서울윤중초등학교,82,서울특별시 영등포구 여의나루로2길 14,37.519335,126.923152
219,S010001254,서울정심초등학교,51,서울특별시 금천구 독산로78다길 89,37.4719923388,126.9082145562
220,S010001255,서울탑동초등학교,73,서울특별시 금천구 탑골로 47-3,37.4525178069,126.9153675372
221,S010001394,경희초등학교,122,서울특별시 동대문구 경희대로 26,37.594945,127.049092
222,S010001395,금성초등학교,122,서울특별시 중랑구 신내로21길 55,37.6150693,127.0900306
223,S010001396,서울삼육초등학교,123,서울특별시 동대문구 회기로10길 63,37.5887703315,127.0471735604
224,S010001397,서울군자초등학교,54,서울특별시 동대문구 한천로6길 21,37.5641238492,127.0605230733
225,S010001398,서울답십리초등학교,169,서울특별시 동대문구 전농로3길 23,37.568665,127.055616
226,S010001399,서울동답초등학교,76,서울특별시 동대문구 답십리로60길 12,37.5715029534,127.0640336428
227,S010001400,서울동원초등학교,64,서울특별시 중랑구 송림길 114,37.6045765325,127.1044914165
228,S010001401,서울망우초등학교,51,서울특별시 중랑구 망우로72길 49,37.59834,127.10358
229,S010001402,서울면남초등학교,50,서울특별시 중랑구 면목로30나길 38,37.577035,127.088157
230,S010001403,서울면동초등학교,173,서울특별시 중랑구 면목로57길 32,37.5853530544,127.0865941198
231,S010001404,서울면목초등학교,92,서울특별시 중랑구 면목로 434,37.5906972297,127.0872887294
232,S010001405,서울면북초등학교,20,서울특별시 중랑구 용마공원로5길 32,37.5944177943,127.1035487055
233,S010001406,서울면일초등학교,100,서울특별시 중랑구 용마산로100길 13,37.5920424099,127.0997952795
234,S010001407,서울면중초등학교,44,서울특별시 중랑구 용마산로70길 43,37.5824405304,127.0965490647
235,S010001408,서울묵동초등학교,67,서울특별시 중랑구 동일로138길 27,37.6033589544,127.0808258579
236,S010001409,서울배봉초등학교,71,서울특별시 동대문구 사가정로 193,37.580154,127.065973
237,S010001410,서울봉화초등학교,90,서울특별시 중랑구 신내로15길 110,37.61351,127.092392
238,S010001411,서울상봉초등학교,114,서울특별시 중랑구 동일로126가길 11,37.597980214,127.0831708543
239,S010001412,서울신내초등학교,99,서울특별시 중랑구 용마산로125나길 22,37.6049335018,127.1001295936
240,S010001413,서울신답초등학교,85,서울특별시 동대문구 천호대로 177,37.5727054198,127.0429614615
241,S010001414,서울신묵초등학교,67,서울특별시 중랑구 동일로149길 46,37.6065229379,127.0758371918
242,S010001415,서울신현초등학교,88,서울특별시 중랑구 봉화산로 188,37.6056743,127.0936591
243,S010001416,서울안평초등학교,181,서울특별시 동대문구 장한로14길 61,37.5659698352,127.0720336504
244,S010001417,서울용두초등학교,56,서울특별시 동대문구 천호대로13길 43,37.5764147141,127.0283873066
245,S010001418,서울원묵초등학교,155,서울특별시 중랑구 숙선옹주로 109,37.6177489018,127.086812905
246,S010001419,서울이문초등학교,106,서울특별시 동대문구 신이문로 16,37.6022,127.064343
247,S010001420,서울장평초등학교,199,서울특별시 동대문구 답십리로,37.573776,127.073311
248,S010001421,서울전곡초등학교,42,서울특별시 동대문구 전농로 172,37.580525,127.05645
249,S010001422,서울전농초등학교,188,서울특별시 동대문구 사가정로 66,37.574552,127.054227
250,S010001423,서울전동초등학교,127,서울특별시 동대문구 전농로16길 61,37.5790838251,127.0608068823
251,S010001424,서울종암초등학교,65,서울특별시 동대문구 무학로44길 25,37.5823063288,127.0318584204
252,S010001425,서울중곡초등학교,110,서울특별시 중랑구 면목로23길 20,37.574723,127.083504
253,S010001426,서울중랑초등학교,113,서울특별시 중랑구 봉우재로6길 26,37.5896638101,127.0755030522
254,S010001427,서울중목초등학교,76,서울특별시 중랑구 동일로 665,37.5900865407,127.0793712712
255,S010001428,서울중화초등학교,190,서울특별시 중랑구 신내로7가길 22,37.6029202731,127.0940660124
256,S010001429,서울중흥초등학교,29,서울특별시 중랑구 봉화산로 82,37.6016735855,127.0841443286
257,S010001430,서울청량초등학교,89,서울특별시 동대문구 회기로25길 31,37.5923092187,127.0559080257
258,S010001431,서울홍릉초등학교,60,서울특별시 동대문구 회기로 90,37.591592,127.04719
259,S010001432,서울홍파초등학교,36,서울특별시 동대문구 고산자로 518,37.5862035115,127.0395182754
260,S010001433,서울휘경초등학교,52,서울특별시 동대문구 망우로6길 48,37.5857622,127.0581161
261,S010001434,은석초등학교,122,서울특별시 동대문구 장안벚꽃로 205,37.578434,127.075702
262,S010001576,서울강남초등학교,113,서울특별시 동작구 강남초등길 15,37.505892,126.953153
263,S010001577,서울관악초등학교,99,서울 관악구 청룡4길 49,37.480703,126.943318
264,S010001578,서울구암초등학교,202,서울특별시 관악구 구암길 1,37.4892099,126.9469194
265,S010001579,서울난곡초등학교,47,서울특별시 관악구 난곡로35길 102,37.4691295565,126.916343592
266,S010001580,서울난우초등학교,113,서울특별시 관악구 난우길 40,37.477123,126.917524
267,S010001581,서울난향초등학교,134,서울특별시 관악구 난향길 9,37.4624143,126.9180741
268,S010001582,서울남부초등학교,76,서울특별시 관악구 남부순환로163길 14,37.4851210569,126.9221826433
269,S010001583,서울남사초등학교,99,서울특별시 동작구 동작대로13길 22,37.482523,126.978839
270,S010001584,서울남성초등학교,97,서울특별시 동작구 사당로23길 57-14,37.4845963277,126.9754872048
271,S010001585,서울노량진초등학교,47,서울특별시 동작구 장승배기로 160,37.5117511917,126.9408222377
272,S010001586,서울당곡초등학교,96,서울특별시 관악구 보라매로2길 23,37.4901,126.92991
273,S010001587,서울대림초등학교,136,서울특별시 동작구 대방동1길 22,37.500823,126.925235
274,S010001588,서울동작초등학교,86,서울특별시 동작구 동작대로29길 214,37.4941147813,126.9765108674
275,S010001589,서울문창초등학교,64,서울특별시 동작구 신대방2길 14,37.4889831201,126.9148424622
276,S010001590,서울미성초등학교,131,서울특별시 관악구 문성로 79,37.4781377,126.9126553
277,S010001591,서울본동초등학교,22,서울특별시 동작구 노량진로26길 16-40,37.5099261605,126.9538533264
278,S010001592,서울봉천초등학교,118,서울특별시 관악구 행운1라길 17,37.482891,126.957922
279,S010001593,서울사당초등학교,123,서울특별시 관악구 남현4길 51,37.4738378145,126.9733518093
280,S010001594,서울삼성초등학교,56,서울특별시 관악구 대학7길 52,37.468287,126.941004
281,S010001595,서울상도초등학교,132,서울특별시 동작구 성대로21길 62,37.5003462392,126.9372711624
282,S010001596,서울신길초등학교,142,서울특별시 동작구 알마타길 16,37.5100779624,126.9262918534
283,S010001597,서울신남성초등학교,102,서울특별시 동작구 사당로 146,37.489023,126.965034
284,S010001598,서울신림초등학교,85,서울특별시 관악구 문성로28길 31,37.4773,126.92726
285,S010001599,서울신봉초등학교,49,서울특별시 관악구 양녕로6나길 1,37.4855755365,126.9493908208
286,S010001600,서울신상도초등학교,264,서울특별시 동작구 장승배기로 14,37.500323,126.943968
287,S010001601,서울신성초등학교,80,서울특별시 관악구 신림로 114,37.47156,126.936951
288,S010001602,서울신우초등학교,53,서울특별시 관악구 호암로 498,37.4632653184,126.9325366299
289,S010001603,서울영본초등학교,134,서울특별시 동작구 만양로12가길 69,37.5111709262,126.9484732167
290,S010001604,서울영화초등학교,75,서울특별시 동작구 등용로8길 3,37.5089070338,126.9329751321
291,S010001605,서울원당초등학교,23,서울특별시 관악구 봉천로 505,37.4812786624,126.9562497617
292,S010001606,서울원신초등학교,34,서울특별시 관악구 광신길 177,37.467291,126.927331
293,S010001607,서울은로초등학교,128,서울특별시 동작구 서달로 115,37.503762,126.960738
294,S010001608,서울은천초등학교,181,서울특별시 관악구 은천로 69,37.4865852036,126.9426783411
295,S010001609,서울인헌초등학교,159,서울특별시 관악구 낙성대로 23,37.4767532754,126.9598656241
296,S010001610,서울청룡초등학교,60,서울특별시 관악구 관악로5길 61,37.47672482,126.9512825394
297,S010001611,서울행림초등학교,47,서울특별시 동작구 솔밭로 47,37.483017,126.9645288
298,S010001612,서울흑석초등학교,91,서울특별시 동작구 현충로 87,37.508293804,126.9651328752
299,S010001613,중앙대학교사범대학부속초등학교,123,서울특별시 동작구 서달로 135,37.5054521002,126.9596783571
300,S010001733,동북초등학교,129,서울특별시 도봉구 시루봉로 53,37.6550787254,127.0261507392
301,S010001734,상명초등학교,121,서울특별시 노원구 덕릉로 541,37.6487233004,127.0669690112
302,S010001735,서울계상초등학교,69,서울특별시 노원구 한글비석로41가길 24,37.662197408,127.0686766085
303,S010001736,서울공릉초등학교,62,서울특별시 노원구 동일로173길 12,37.6186149755,127.0746306975
304,S010001737,서울공연초등학교,79,서울특별시 노원구 동일로192가길 16,37.627368,127.074873
305,S010001738,서울노원초등학교,51,서울특별시 노원구 동일로230나길 32,37.67323,127.05836
306,S010001739,서울노일초등학교,80,서울특별시 노원구 동일로 1625,37.6737551608,127.0549670382
307,S010001740,서울녹천초등학교,42,서울특별시 노원구 마들로3길 34,37.6285073256,127.0631173366
308,S010001741,서울누원초등학교,124,서울특별시 도봉구 마들로 859-44,37.6872327126,127.049267504
309,S010001742,서울당현초등학교,79,서울특별시 노원구 동일로213길 52,37.6482594353,127.0582116869
310,S010001743,서울도봉초등학교,62,서울특별시 도봉구 도봉로173길 96,37.6799604898,127.0382892301
311,S010001744,서울동일초등학교,102,서울특별시 노원구 한글비석로 566,37.6648142022,127.0541716035
312,S010001745,서울방학초등학교,88,서울특별시 도봉구 도당로9길 34,37.664101,127.032016
313,S010001746,서울백운초등학교,124,서울특별시 도봉구 삼양로146길 17,37.6532035,127.0139875
314,S010001747,서울불암초등학교,100,서울특별시 노원구 중계로 178,37.6507834314,127.0806007324
315,S010001748,서울상경초등학교,122,서울특별시 노원구 수락산로 237,37.6705527662,127.0516730525
316,S010001749,서울상계초등학교,46,서울특별시 노원구 상계로9길 39,37.659625456,127.0664937451
317,S010001750,서울상곡초등학교,85,서울특별시 노원구 노원로38길 34,37.6629038313,127.0620765543
318,S010001751,서울상수초등학교,112,서울특별시 노원구 동일로216길 66,37.651991,127.064846
319,S010001752,서울상원초등학교,74,서울특별시 노원구 한글비석로54길 119,37.6671878,127.0598254
320,S010001753,서울상월초등학교,43,서울특별시 노원구 동일로221길 27,37.65865377,127.0569822399
321,S010001754,서울상천초등학교,73,서울특별시 노원구 덕릉로 443,37.6462846786,127.0578067585
322,S010001755,서울선곡초등학교,130,서울특별시 노원구 광운로2길 1,37.61841,127.05804
323,S010001756,서울수락초등학교,67,서울특별시 노원구 동일로 1745,37.6845019326,127.0551835669
324,S010001757,서울수암초등학교,64,서울특별시 노원구 중계로12길 9,37.648425,127.08154
325,S010001758,서울숭미초등학교,117,서울특별시 도봉구 노해로 179,37.6510238921,127.0279442781
326,S010001759,서울신계초등학교,33,서울특별시 노원구 초안산로 29,37.6305,127.0529
327,S010001760,서울신방학초등학교,55,서울특별시 도봉구 시루봉로 173,37.6666827204,127.0289203557
328,S010001761,서울신상계초등학교,65,서울특별시 노원구 상계로 267,37.6674295866,127.0757359074
329,S010001762,서울신창초등학교,48,서울특별시 도봉구 덕릉로60길 93,37.636567,127.041855
330,S010001763,서울신학초등학교,71,서울특별시 도봉구 방학로 247-21,37.6612199123,127.025722225
331,S010001764,서울신화초등학교,52,서울특별시 도봉구 우이천로 120,37.6331950433,127.0408845141
332,S010001765,서울쌍문초등학교,100,서울특별시 도봉구 우이천로 360,37.6489,127.024422
333,S010001766,서울연지초등학교,52,서울특별시 노원구 월계로55길 48,37.6331907097,127.0595367659
334,S010001767,서울연촌초등학교,81,서울특별시 노원구 공릉로58길 36,37.6344159971,127.0725120576
335,S010001768,서울오봉초등학교,68,서울특별시 도봉구 시루봉로 285,37.672244,127.040476
336,S010001769,서울온곡초등학교,97,서울특별시 노원구 한글비석로52길 59,37.6675399994,127.0659114201
337,S010001770,서울용동초등학교,32,서울특별시 노원구 한글비석로1길 81-11,37.6410853427,127.0690831888
338,S010001771,서울용원초등학교,95,서울특별시 노원구 섬밭로 144,37.6299240206,127.0689414443
339,S010001772,서울원광초등학교,80,서울특별시 노원구 덕릉로76길 18,37.6543118225,127.0749157209
340,S010001773,서울월계초등학교,54,서울특별시 노원구 월계로45가길 10,37.6276197545,127.0501887659
341,S010001774,서울월천초등학교,55,서울특별시 도봉구 노해로70길 96,37.6480462095,127.0517526393
342,S010001775,서울을지초등학교,197,서울특별시 노원구 중계로 239,37.6505901078,127.0730898358
343,S010001776,서울자운초등학교,129,서울특별시 도봉구 마들로13길 166,37.6580095888,127.046682422
344,S010001777,서울중계초등학교,143,서울특별시 노원구 한글비석로19길 39,37.657841077,127.0733100011
345,S010001778,서울중원초등학교,60,서울특별시 노원구 섬밭로 316,37.6439828328,127.0627678444
346,S010001779,서울중평초등학교,221,서울특별시 노원구 섬밭로 241,37.637534746,127.0639633756
347,S010001780,서울중현초등학교,12,서울특별시 노원구 섬밭로 181,37.6324103,127.066432
348,S010001781,서울창경초등학교,151,서울특별시 도봉구 도봉로129길 54,37.656552,127.034969
349,S010001782,서울창도초등학교,124,서울특별시 도봉구 방학로 32-28,37.6641354114,127.0487852808
350,S010001783,서울창동초등학교,73,서울특별시 도봉구 해등로16길 81,37.6553614195,127.0448313029
351,S010001784,서울창림초등학교,139,서울특별시 도봉구 덕릉로63길 46,37.643235367,127.0416061127
352,S010001785,서울창원초등학교,51,서울특별시 도봉구 해등로 103,37.652516,127.04056
353,S010001786,서울창일초등학교,141,서울특별시 도봉구 노해로66길 84,37.6476587221,127.047627773
354,S010001787,서울청계초등학교,44,서울특별시 노원구 공릉로 431,37.6450333392,127.0661408079
355,S010001788,서울초당초등학교,142,서울특별시 도봉구 해등로32길 11,37.658421,127.022382
356,S010001789,서울태랑초등학교,131,서울특별시 노원구 화랑로51나길 31,37.6262513725,127.0906018331
357,S010001790,서울태릉초등학교,122,서울특별시 노원구 노원로1길 36,37.623102043,127.0850610892
358,S010001791,서울한천초등학교,142,서울특별시 노원구 마들로 45,37.620167,127.069042
359,S010001792,청원초등학교,122,서울특별시 노원구 한글비석로 506,37.665317,127.061327
360,S010001793,태강삼육초등학교,128,서울특별시 노원구 화랑로 815,37.641795,127.110518
361,S010001794,한신초등학교,114,서울특별시 도봉구 노해로49길 69,37.653226,127.032803
362,S010001795,화랑초등학교,115,서울특별시 노원구 화랑로 621,37.6287825674,127.0889917354
363,S010001966,경기초등학교,96,서울특별시 서대문구 경기대로9길 10,37.5651102007,126.9628607621
364,S010001967,명지초등학교,120,서울특별시 서대문구 명지2길 32-20,37.583629488,126.9282301127
365,S010001968,서울갈현초등학교,165,서울특별시 은평구 연서로29길 31,37.619314,126.916511
366,S010001969,서울고은초등학교,88,서울특별시 서대문구 모래내로 441,37.5850003126,126.9439751653
367,S010001970,서울공덕초등학교,134,서울특별시 마포구 만리재옛길 13,37.5458044265,126.95482249
368,S010001971,서울구산초등학교,156,서울특별시 은평구 서오릉로15길 16,37.6123002533,126.9091024987
369,S010001972,서울금화초등학교,72,서울특별시 서대문구 통일로 165,37.5682696,126.9633164
370,S010001973,서울녹번초등학교,118,서울특별시 은평구 녹번로1길 1,37.6045850144,126.9257457139
371,S010001974,서울대신초등학교,28,서울특별시 서대문구 이화여대2길 27,37.5577020191,126.9480382837
372,S010001975,서울대은초등학교,22,서울특별시 은평구 통일로69길 12-15,37.6121245969,126.9259103721
373,S010001976,서울대조초등학교,134,서울특별시 은평구 연서로18길 17,37.6132233,126.9195423
374,S010001977,서울동교초등학교,131,서울특별시 마포구 월드컵로25길 86,37.558429,126.902539
375,S010001978,서울마포초등학교,135,서울특별시 마포구 도화2길 64,37.5386016165,126.9498166477
376,S010001979,서울망원초등학교,47,서울특별시 마포구 방울내로5길 28,37.5608901088,126.9007623937
377,S010001980,서울미동초등학교,41,서울특별시 서대문구 충정로 52,37.563267,126.965794
378,S010001981,서울북가좌초등학교,197,서울특별시 서대문구 거북골로19길 20,37.57785,126.907656
379,S010001982,서울북성초등학교,186,서울특별시 서대문구 북아현로1나길 22,37.5596317628,126.9518352535
380,S010001983,서울북한산초등학교,17,서울특별시 은평구 대서문길 42-3,37.6536332557,126.9504645984
381,S010001984,서울불광초등학교,121,서울특별시 은평구 불광로 51,37.6134285463,126.930720412
382,S010001985,서울상신초등학교,96,서울특별시 은평구 가좌로 361,37.597953428,126.9052019311
383,S010001986,서울상암초등학교,72,서울특별시 마포구 월드컵북로 353,37.5763366011,126.8923420937
384,S010001987,서울서강초등학교,178,서울특별시 마포구 독막로 113,37.5486952599,126.9268966105
385,S010001988,서울서교초등학교,73,서울특별시 마포구 와우산로23길 20-27,37.554941,126.924899
386,S010001989,서울성산초등학교,121,서울특별시 마포구 양화로3길 94,37.55355,126.91116
387,S010001990,서울성서초등학교,83,서울특별시 마포구 성미산로7길 24,37.5606247065,126.9114515736
388,S010001991,서울성원초등학교,54,서울특별시 마포구 월드컵로36길 34,37.5669771899,126.9050872612
389,S010001992,서울소의초등학교,72,서울특별시 마포구 마포대로24길 42,37.5527802434,126.9606578163
390,S010001993,서울수색초등학교,54,서울특별시 은평구 수색로16길 21,37.5851732294,126.8960112279
391,S010001994,서울신도초등학교,141,서울특별시 은평구 진관1로 77-23,37.6329394193,126.9291978017
392,S010001995,서울신북초등학교,116,서울특별시 마포구 월드컵북로38길 26,37.5711039693,126.9053627531
393,S010001996,서울신사초등학교,48,서울특별시 은평구 가좌로 275-2,37.592835,126.912358
394,S010001997,서울신석초등학교,120,서울특별시 마포구 대흥로 33,37.543916,126.93782
395,S010001998,서울아현초등학교,106,서울특별시 마포구 굴레방로 6,37.5558312701,126.9562424291
396,S010001999,서울안산초등학교,120,서울특별시 서대문구 통일로 321,37.5791691008,126.9522121109
397,S010002000,서울역촌초등학교,226,서울특별시 은평구 은평로3길 25,37.6015856989,126.9139261065
398,S010002001,서울연가초등학교,252,서울특별시 서대문구 증가로12가길 49-50,37.5795642829,126.9173296446
399,S010002002,서울연신초등학교,35,서울특별시 은평구 연서로 347,37.6266794,126.9285544
400,S010002003,서울연은초등학교,132,서울특별시 은평구 백련산로2길 35,37.590331,126.925224
401,S010002004,서울연천초등학교,33,서울특별시 은평구 연서로34길 22,37.6213495603,126.92992015
402,S010002005,서울연희초등학교,136,서울 서대문구 연희로 136,37.569167,126.9339564
403,S010002006,서울염리초등학교,234,서울특별시 마포구 토정로37길 37,37.542562,126.945821
404,S010002007,서울용강초등학교,102,서울특별시 마포구 백범로17길 9,37.5491010696,126.9440427847
405,S010002008,서울은평초등학교,170,서울특별시 은평구 은평로 239,37.601936,126.934486
406,S010002009,서울응암초등학교,118,서울특별시 은평구 가좌로6길 20,37.5886167942,126.9216357144
407,S010002010,서울인왕초등학교,72,서울특별시 서대문구 세무서길 33-9,37.5903369,126.9451943
408,S010002011,서울중동초등학교,85,서울특별시 마포구 월드컵북로 152,37.5666246,126.911279
409,S010002012,서울증산초등학교,70,서울특별시 은평구 증산서길 61,37.5825637366,126.9042749766
410,S010002013,서울창서초등학교,33,서울특별시 서대문구 연세로5나길 30-3,37.5581416085,126.9334788354
411,S010002014,서울창천초등학교,28,서울특별시 마포구 백범로1길 56,37.554877,126.939637
412,S010002015,서울한서초등학교,111,서울특별시 마포구 대흥로24바길 27,37.5536482837,126.9497793991
413,S010002016,서울홍연초등학교,108,서울특별시 서대문구 백련사길 55,37.582078,126.930792
414,S010002017,서울홍은초등학교,51,서울특별시 서대문구 세검정로 105,37.5975409941,126.9494600266
415,S010002018,서울홍제초등학교,113,서울특별시 서대문구 홍은중앙로 13,37.5935063587,126.9454226747
416,S010002019,선일초등학교,87,서울특별시 은평구 갈현로29길 27,37.619773,126.913287
417,S010002021,예일초등학교,84,서울특별시 은평구 연서로 117,37.610224,126.914341
418,S010002023,이화여자대학교사범대학부속초등학교,104,서울특별시 서대문구 성산로 512-39,37.5611486017,126.9427751922
419,S010002024,추계초등학교,61,서울특별시 서대문구 북아현로11가길 7,37.56368,126.953127
420,S010002025,충암초등학교,132,서울특별시 은평구 가좌로5길 5,37.585434,126.922585
421,S010002026,홍익대학교사범대학부속초등학교,86,서울특별시 마포구 성미산로 51,37.5596457273,126.9132092807
422,S010002163,경복초등학교,124,서울특별시 광진구 천호대로130길 58,37.549722,127.086784
423,S010002164,서울경동초등학교,156,서울특별시 성동구 성수일로 34,37.5438238575,127.0500736967
424,S010002165,서울경수초등학교,37,서울특별시 성동구 뚝섬로13길 22,37.5404360421,127.0580689191
425,S010002166,서울경일초등학교,52,서울특별시 성동구 뚝섬로 332,37.5409420789,127.0466048098
426,S010002167,서울광남초등학교,175,서울특별시 광진구 아차산로70길 35,37.5407894383,127.10066382
427,S010002168,서울광장초등학교,40,서울특별시 광진구 광장로1길 27,37.5485053,127.1010583
428,S010002169,서울구남초등학교,129,서울특별시 광진구 구의강변로 69,37.5370949717,127.0922906067
429,S010002170,서울구의초등학교,71,서울특별시 광진구 광나루로30길 49,37.5430070757,127.0803125675
430,S010002171,서울금북초등학교,135,서울특별시 성동구 행당로1길 13,37.5574948633,127.0235588108
431,S010002172,서울금옥초등학교,47,서울특별시 성동구 독서당로 251,37.5463018927,127.0176528868
432,S010002173,서울금호초등학교,112,서울특별시 성동구 무수막길 69,37.5518983915,127.0207550096
433,S010002174,서울동명초등학교,42,서울특별시 성동구 마장로29길 29,37.568565,127.03537
434,S010002175,서울동의초등학교,116,서울특별시 광진구 영화사로 111,37.5534228057,127.0990466314
435,S010002176,서울동자초등학교,174,서울특별시 광진구 뚝섬로 561,37.5350582988,127.07218041
436,S010002177,서울무학초등학교,68,서울특별시 성동구 무학봉15길 21,37.563094,127.029438
437,S010002178,서울사근초등학교,36,서울특별시 성동구 사근동11길 16,37.5628186,127.0477686
438,S010002179,서울성수초등학교,45,서울특별시 성동구 아차산로17길 21,37.544309,127.063378
439,S010002180,서울성자초등학교,107,서울특별시 광진구 뚝섬로56길 7,37.531162,127.083148
440,S010002181,서울신양초등학교,86,서울특별시 광진구 능동로 42,37.5346811946,127.0699941441
441,S010002182,서울신자초등학교,55,서울특별시 광진구 뚝섬로46길 64,37.530244822,127.0755879302
442,S010002183,서울양남초등학교,31,서울특별시 광진구 뚝섬로64길 71,37.5336,127.0895
443,S010002184,서울옥수초등학교,102,서울특별시 성동구 금호로1길 25,37.545922708,127.0221882083
444,S010002185,서울옥정초등학교,118,서울특별시 성동구 한림말길 43,37.5423089278,127.0157871757
445,S010002186,서울용곡초등학교,81,서울특별시 광진구 용마산로22길 82,37.5671083466,127.088451965
446,S010002187,서울용답초등학교,37,서울특별시 성동구 용답25길 1,37.5607285633,127.0537611376
447,S010002188,서울용마초등학교,157,서울특별시 광진구 천호대로113길 10,37.55811,127.0841
448,S010002189,서울응봉초등학교,112,서울특별시 성동구 독서당로62길 28,37.5502519479,127.0338319582
449,S010002190,서울자양초등학교,85,서울특별시 광진구 아차산로44길 26,37.5369887849,127.0797403855
450,S010002191,서울장안초등학교,101,서울특별시 광진구 군자로 74,37.5498778014,127.0724029218
451,S010002192,서울중광초등학교,36,서울특별시 광진구 긴고랑로13길 59,37.565242052,127.0826952732
452,S010002193,서울중마초등학교,64,서울특별시 광진구 동일로72길 43,37.5661418,127.0800646
453,S010002194,서울행당초등학교,130,서울특별시 성동구 고산자로8길 6,37.5570199415,127.0348717076
454,S010002195,서울화양초등학교,7,서울특별시 광진구 군자로 9,37.5444596231,127.070995017
455,S010002196,성동초등학교,123,서울특별시 광진구 자양로4길 63,37.5332806475,127.0892809127
456,S010002197,세종초등학교,62,서울특별시 광진구 군자로 114,37.5530324,127.0729061
457,S010002198,한양초등학교,114,서울특별시 성동구 살곶이길 208,37.5576198623,127.0502640097
458,S010002289,광운초등학교,112,서울특별시 성북구 한천로 694,37.6190581901,127.0550898535
459,S010002290,대광초등학교,85,서울특별시 성북구 안암로 5,37.579151217,127.0234478949
460,S010002291,매원초등학교,86,서울특별시 성북구 북악산로 870,37.598015,127.019023
461,S010002292,서울개운초등학교,95,서울특별시 성북구 정릉로48길 52,37.601824,127.027576
462,S010002293,서울길음초등학교,156,서울특별시 성북구 길음로 142,37.6136315081,127.016658498
463,S010002294,서울돈암초등학교,118,서울특별시 성북구 동소문로13길 38,37.593319,127.013137
464,S010002295,서울동신초등학교,60,서울특별시 성북구 보문사길 50,37.5832860722,127.0170593097
465,S010002296,서울미아초등학교,179,서울특별시 성북구 삼양로 77,37.610646,127.021552
466,S010002297,서울미양초등학교,77,서울특별시 강북구 솔샘로 195,37.6212214,127.0137039
467,S010002298,서울번동초등학교,81,서울특별시 강북구 오현로 204,37.6290255699,127.0400393909
468,S010002299,서울삼각산초등학교,181,서울특별시 강북구 삼양로19길 141,37.616162,127.014471
469,S010002300,서울삼선초등학교,96,서울특별시 성북구 보문로29길 106,37.5871428751,127.0126717311
470,S010002301,서울삼양초등학교,73,서울특별시 강북구 삼양로49길 17,37.6232937742,127.0161486458
471,S010002302,서울석관초등학교,115,서울특별시 성북구 돌곶이로22길 21,37.6110234081,127.0583548031
472,S010002303,서울성북초등학교,33,서울특별시 성북구 성북로 102-10,37.593839,126.998319
473,S010002304,서울송중초등학교,126,서울특별시 강북구 오현로 9,37.6170017897,127.0314654581
474,S010002305,서울송천초등학교,87,서울특별시 강북구 삼양로20길 29,37.615716,127.023401
475,S010002306,서울수송초등학교,76,서울특별시 강북구 한천로124길 14,37.6373239675,127.0332052109
476,S010002307,서울수유초등학교,106,서울특별시 강북구 삼양로74길 39,37.630802,127.020369
477,S010002308,서울숭곡초등학교,87,서울특별시 성북구 종암로40길 30,37.6084312159,127.0328163602
478,S010002309,서울숭덕초등학교,193,서울특별시 성북구 정릉로 279,37.603818358,127.0132906207
479,S010002310,서울숭례초등학교,128,서울특별시 성북구 종암로5길 14,37.5947464,127.0351482
480,S010002311,서울숭인초등학교,176,서울특별시 성북구 오패산로16길 37,37.6091611883,127.0382347854
481,S010002312,서울안암초등학교,40,서울특별시 성북구 고려대로7가길 39,37.5871997,127.0226313
482,S010002313,서울오현초등학교,52,서울특별시 강북구 월계로 221,37.623597,127.046649
483,S010002314,서울우이초등학교,162,서울특별시 강북구 삼양로99길 36,37.6387115988,127.0150053909
484,S010002315,서울월곡초등학교,61,서울특별시 성북구 장월로3길 42,37.6100233349,127.0460816023
485,S010002316,서울유현초등학교,47,서울특별시 강북구 인수봉로 159,37.6323474396,127.0114196195
486,S010002317,서울인수초등학교,89,서울특별시 강북구 인수봉로 269,37.6430513409,127.0091370063
487,S010002318,서울일신초등학교,124,서울특별시 성북구 월곡로 74,37.598813572,127.0401772006
488,S010002319,서울장곡초등학교,122,서울특별시 성북구 장월로23길 16,37.616830377,127.0481563112
489,S010002320,서울장위초등학교,72,서울특별시 성북구 장월로8가길 41,37.6114416962,127.0500057396
490,S010002321,서울정덕초등학교,175,서울특별시 성북구 아리랑로 63,37.597773,127.013625
491,S010002322,서울정릉초등학교,115,서울특별시 성북구 솔샘로25가길 8,37.6197953266,127.0052557663
492,S010002323,서울정수초등학교,48,서울특별시 성북구 정릉로24길 58,37.6037756064,127.0077188836
493,S010002324,서울청덕초등학교,45,서울특별시 성북구 정릉로9라길 11,37.6120325272,127.0003352467
494,S010002325,서울화계초등학교,107,서울특별시 강북구 솔매로50가길 25,37.6238857893,127.0297148311
495,S010002326,성신초등학교,84,서울특별시 성북구 북악산로 918,37.593866,127.0233
496,S010002327,영훈초등학교,115,서울특별시 강북구 도봉로13가길 19,37.613195,127.027881
497,S010002328,우촌초등학교,115,서울특별시 성북구 성북로4길 52-1,37.59552,127.0114
498,S010002365,계성초등학교,115,서울특별시 서초구 신반포로19길 23,37.504914732,126.9968242352
499,S010002366,동산초등학교,90,서울특별시 중구 매봉18길 109,37.5562058005,127.0167271919
500,S010002367,리라초등학교,84,서울특별시 중구 소파로2길 7,37.5576514,126.9881018
501,S010002368,상명대학교사범대학부속초등학교,62,서울특별시 종로구 홍지문2길 1,37.6004414644,126.956714578
502,S010002369,서울광희초등학교,43,서울특별시 중구 다산로 269,37.5672990141,127.0156883123
503,S010002370,서울교동초등학교,31,서울특별시 종로구 삼일대로 446,37.574871,126.988115
504,S010002371,서울금양초등학교,119,서울특별시 용산구 효창원로 137,37.5409415031,126.9618317604
505,S010002372,서울남산초등학교,50,서울특별시 중구 퇴계로22길 17,37.559945,126.986644
506,S010002373,서울남정초등학교,63,서울특별시 용산구 원효로64길 17-10,37.5360588,126.9649883
507,S010002375,서울덕수초등학교,77,서울특별시 중구 덕수궁길 140,37.5690885161,126.9746581285
508,S010002376,서울독립문초등학교,73,서울특별시 종로구 통일로12길 23,37.5742165182,126.9599718596
509,S010002377,서울매동초등학교,26,서울특별시 종로구 사직로9길 19,37.577355,126.96689
510,S010002378,서울명신초등학교,60,서울특별시 종로구 낙산길 250,37.5814519764,127.0146225537
511,S010002379,서울보광초등학교,45,서울특별시 용산구 우사단로 20,37.5325394797,126.9963931371
512,S010002380,서울봉래초등학교,58,서울특별시 중구 손기정로 73,37.5564109033,126.9652508049
513,S010002381,서울삼광초등학교,67,서울특별시 용산구 두텁바위로1나길 19,37.547386,126.976804
514,S010002382,서울서빙고초등학교,50,서울특별시 용산구 서빙고로51길 14,37.52142,126.99166
515,S010002383,서울세검정초등학교,144,서울특별시 종로구 세검정로9길 1,37.6034702766,126.9609708751
516,S010002384,서울숭신초등학교,170,서울특별시 성동구 마장로 161,37.5679207,127.0277146
517,S010002385,서울신용산초등학교,270,서울특별시 용산구 이촌로 255,37.5206293227,126.9753668258
518,S010002386,서울용산초등학교,79,서울 용산구 한강대로57길 33,37.5356141639,126.9725514162
519,S010002387,서울용암초등학교,17,서울특별시 용산구 녹사평대로60길 39,37.5448696,126.9891625
520,S010002388,서울원효초등학교,81,서울특별시 용산구 효창원로13길 38,37.5361624303,126.9515471256
521,S010002389,서울이태원초등학교,33,서울특별시 용산구 녹사평대로40길 19,37.5359766,126.9879974
522,S010002390,서울장충초등학교,49,서울특별시 중구 청구로17길 40,37.5599725739,127.0117028329
523,S010002391,서울재동초등학교,26,서울특별시 종로구 북촌로4길 7,37.5800283814,126.9851784741
524,S010002392,서울창신초등학교,54,서울특별시 종로구 지봉로 73,37.576211835,127.0142954992
525,S010002393,서울청구초등학교,92,서울특별시 중구 다산로 170,37.558493,127.013917
526,S010002394,서울청운초등학교,73,서울특별시 종로구 자하문로 105,37.5859415,126.9693286
527,S010002395,서울청파초등학교,67,서울특별시 용산구 효창원로 228,37.547495,126.96417
528,S010002396,서울충무초등학교,30,서울 중구 퇴계로50길 13,37.5619481324,127.0012359604
529,S010002397,서울한강초등학교,50,서울특별시 용산구 한강대로14길 9,37.5252254518,126.965097846
530,S010002398,서울한남초등학교,48,서울특별시 용산구 한남대로 112,37.5392032028,127.0055986027
531,S010002399,서울혜화초등학교,92,서울특별시 종로구 혜화로 32,37.5886355989,127.0002536208
532,S010002400,서울효제초등학교,23,서울특별시 종로구 대학로 12,37.5726879575,127.0034910708
533,S010002401,서울후암초등학교,39,서울특별시 용산구 두텁바위로 140,37.5513654106,126.9817257628
534,S010002402,서울흥인초등학교,61,서울특별시 중구 청구로6길 11,37.5604251,127.0142995
535,S010002403,숭의초등학교,90,서울특별시 중구 소파로2길 10,37.556283,126.987979
536,S010002404,신광초등학교,65,서울특별시 용산구 청파로 263,37.542655,126.970215
537,S010002405,운현초등학교,30,서울특별시 종로구 삼일대로 460,37.57613,126.98827
538,S010002495,서울신기초등학교,69,서울특별시 양천구 신정로 292,37.5113120448,126.8542145709
539,S010005177,서울금동초등학교,116,서울특별시 금천구 금하로30길 53,37.4477395655,126.916399059
540,S010005178,서울덕암초등학교,93,서울특별시 노원구 덕릉로112길 68,37.6666220971,127.0814611209
541,S010005179,서울봉현초등학교,147,서울특별시 관악구 성현로 117,37.4912399617,126.9555881092
542,S010005203,서울광진초등학교,100,서울특별시 광진구 자양로40길 41,37.5476121791,127.0913349096
543,S010005213,서울연광초등학교,32,서울특별시 은평구 연서로35길 37,37.6236487609,126.9239097981
544,S010005214,서울고원초등학교,109,서울특별시 구로구 경인로46길 13,37.4976124809,126.8657985893
545,S010005215,서울가인초등학교,77,서울특별시 도봉구 도봉로136다길 4,37.6599068,127.0431592
546,S010005236,서울묵현초등학교,99,서울특별시 중랑구 동일로157길 75,37.6090795027,127.0736924813
547,S010005241,서울양진초등학교,207,서울특별시 광진구 워커힐로 32,37.5443,127.09821
548,S010005244,서울마장초등학교,74,서울특별시 성동구 마장로35나길 31,37.567816,127.042519
549,S010005247,서울서신초등학교,65,서울특별시 은평구 은평터널로 150,37.5923108,126.9074411
550,S010005249,서울석계초등학교,90,서울특별시 성북구 한천로58길 273,37.6088152159,127.0697328554
551,S010005251,서울보라매초등학교,251,서울특별시 동작구 여의대방로16길 30,37.4958533304,126.9161464285
552,S010005253,서울염경초등학교,147,서울특별시 강서구 양천로69길 49,37.5550704,126.8713194
553,S010005254,서울영문초등학교,188,서울특별시 영등포구 문래로 56,37.519688,126.887662
554,S010005257,서울조원초등학교,72,서울특별시 관악구 조원로 67,37.4841281272,126.9095067511
555,S010005259,서울화일초등학교,100,서울특별시 강서구 까치산로10길 70,37.540564,126.847489
556,S010005269,서울행현초등학교,108,서울특별시 성동구 행당로 95,37.557543,127.029259
557,S010005272,서울길원초등학교,203,서울특별시 성북구 길음로15길 55,37.6090652757,127.0167979152
558,S010005280,서울장수초등학교,55,서울특별시 양천구 신정로13가길 30,37.5130019,126.8451513
559,S010005282,서울장월초등학교,105,서울특별시 성북구 한천로101길 66,37.62208,127.047077
560,S010005283,서울휘봉초등학교,107,서울특별시 동대문구 장안벚꽃로 309,37.5862007,127.0700991
561,S010005370,서울상지초등학교,100,서울특별시 마포구 월드컵로42길 30,37.5797505682,126.8820758168
562,S010005372,서울선유초등학교,50,서울특별시 영등포구 선유로43가길 14,37.5328800909,126.8927756865
563,S010005374,서울신당초등학교,52,서울특별시 중구 난계로 141,37.5636252228,127.0236739268
564,S010005384,서울버들초등학교,170,서울특별시 송파구 석촌호수로 81,37.510391,127.089101
565,S010005386,서울문현초등학교,161,서울특별시 송파구 충민로 137,37.483017,127.130201
566,S010005387,서울삼일초등학교,208,서울특별시 동작구 사당로23나길 27,37.488219,126.975066
567,S010005495,서울매헌초등학교,76,서울특별시 서초구 언남길 8,37.4712636533,127.0420577495
568,S010005496,서울수명초등학교,137,서울특별시 강서구 수명로1길 84,37.5527743821,126.8238814542
569,S010005502,서울은명초등학교,166,서울특별시 은평구 은평로4길 21-9,37.5976784906,126.9182743889
570,S010005503,서울개롱초등학교,63,서울특별시 송파구 문정로 211,37.497355,127.139891
571,S010005504,서울잠현초등학교,163,서울특별시 송파구 올림픽로37길 109,37.5221842,127.1047535
572,S010005505,서울진관초등학교,132,서울특별시 은평구 진관4로 78-16,37.645103,126.929466
573,S010005507,서울목운초등학교,232,서울특별시 양천구 목동동로 235,37.526698,126.872941
574,S010005513,서울송원초등학교,51,서울특별시 성동구 동일로43길 9,37.5541213,127.0695721
575,S010005527,서울강명초등학교,87,서울특별시 강동구 상일로 74-1,37.554767,127.173284
576,S010005546,서울등마초등학교,140,서울특별시 강서구 등촌로35길 12,37.541899,126.861642
577,S010005548,서울신은초등학교,87,서울특별시 양천구 신정이펜2로 30,37.5139921,126.8320256
578,S010005549,서울우면초등학교,120,서울특별시 서초구 태봉로,37.4648619,127.023924
579,S010005551,서울동호초등학교,89,서울특별시 성동구 매봉길 49-35,37.546554,127.010097
580,S010005553,서울천왕초등학교,99,서울특별시 구로구 천왕로1길 11,37.4815891,126.8374889
581,S010005555,서울하늘초등학교,63,서울특별시 마포구 월드컵북로 502-14,37.58566,126.88075
582,S010005557,서울은빛초등학교,90,서울특별시 은평구 진관3로 73-17,37.6426599473,126.9190817254
583,S010005559,서울수리초등학교,72,서울특별시 은평구 불광로14길 10-10,37.6204079,126.9341672
584,S010005567,서울상현초등학교,148,서울특별시 동작구 상도로58길 21,37.4948752928,126.952668444
585,S010005577,서울구현초등학교,104,서울특별시 은평구 갈현로15길 51,37.609626,126.905569
586,S010005581,서울은진초등학교,89,서울특별시 은평구 진관1로 21-20,37.6330423305,126.9209954424
587,S010005597,서울가재울초등학교,307,서울특별시 서대문구 모래내로15길 61,37.5736532,126.9185796
588,S010005600,서울고현초등학교,241,서울특별시 강동구 상일로11길 110,37.5541515,127.1659273
589,S010005601,서울어울초등학교,106,서울특별시 은평구 통일로 650,37.6065848,126.9350729
590,S010005606,서울새솔초등학교,141,서울특별시 중랑구 신내역로1길 164,37.6179517644,127.1113288639
591,S010005828,서울율현초등학교,183,서울특별시 강남구 밤고개로21길 15,37.47455,127.1083212
592,S010005830,서울우솔초등학교,99,서울특별시 서초구 양재대로2길 74,37.4567453109,127.0189519408
593,S010005831,서울자곡초등학교,100,서울특별시 강남구 자곡로 150,37.4725138,127.0998493
594,S010005832,서울세명초등학교,135,서울특별시 강남구 자곡로 55,37.4687124,127.0909147
595,S010006043,서울송례초등학교,237,서울특별시 송파구 위례순환로 439,37.4778899463,127.1384396584
596,S010006211,서울위례별초등학교,255,서울특별시 송파구 위례광장로 243,37.47908,127.14503
597,S010006385,서울강솔초등학교,54,서울특별시 강동구 고덕로97길 80,37.5623095,127.1801929
598,S010006386,서울금나래초등학교,174,서울특별시 금천구 시흥대로79길 37,37.458496,126.896495
599,S010006431,서울하늘숲초등학교,80,서울특별시 구로구 오리로 1106,37.484798,126.841705
600,S010006432,서울항동초등학교,232,서울특별시 구로구 연동로 178,37.4767306,126.8239286
601,S010006433,서울해누리초등학교,111,서울특별시 송파구 송파대로37길 95,37.4983635,127.1019563
602,S010006543,서울강빛초등학교,105,서울특별시 강동구 아리수로93다길 1,37.574172,127.17094
603,S000003559,부산교육대학교부설초등학교,95,부산광역시 연제구 교대로 24,35.194573,129.075497
604,S020000625,광일초등학교,36,부산광역시 중구 중구로 74,35.1040052538,129.0298659929
605,S020000626,남성초등학교,102,부산광역시 중구 샘길 14,35.1041108043,129.0323863767
606,S020000628,대남초등학교,50,부산광역시 남구 황령대로 343번길 9-55,35.1488568453,129.0972361927
607,S020000629,대연초등학교,154,부산광역시 남구 진남로18번길 11,35.137103,129.092284
608,S020000630,대천초등학교,92,부산광역시 남구 조각공원로 19,35.128889,129.100537
609,S020000632,동일중앙초등학교,133,부산광역시 동구 구봉로 46,35.1245154159,129.0367718277
610,S020000633,동천초등학교,45,부산광역시 남구 석포로26번길 22,35.121615418,129.0831724788
611,S020000634,동항초등학교,34,부산광역시 남구 우암로 42,35.1140165309,129.0829058208
612,S020000635,문현초등학교,104,부산광역시 남구 고동골로 86-13,35.1453244524,129.07293848
613,S020000637,백운초등학교,34,부산광역시 남구 동명로 76,35.1183079388,129.1055294545
614,S020000638,범일초등학교,33,부산광역시 동구 증산서로 55,35.1395711632,129.0496534276
615,S020000639,보수초등학교,38,부산광역시 중구 흑교로 74,35.1060704516,129.0242806133
616,S020000640,봉래초등학교,41,부산광역시 중구 대영로 226번길 15호,35.1113965625,129.0355678622
617,S020000641,분포초등학교,179,부산광역시 남구 분포로 41,35.1288789,129.1140146
618,S020000642,부산삼육초등학교,64,부산광역시 금정구 금정도서관로 17,35.272439,129.094613
619,S020000643,석포초등학교,142,부산광역시 남구 석포로86번길 76,35.1265654949,129.0918336952
620,S020000644,성남초등학교,84,부산광역시 동구 범일로53번길 14,35.1351933382,129.0584732384
621,S020000645,성동초등학교,141,부산광역시 남구 전포대로68번길 27,35.1430032,129.0696709
622,S020000646,성천초등학교,5,부산광역시 남구 장고개로 64-41,35.1308278104,129.0722330168
623,S020000647,수성초등학교,36,부산광역시 동구 망양로 807,35.1345515939,129.0427218238
624,S020000648,수정초등학교,49,부산광역시 동구 진성로 29,35.1312649832,129.0467291351
625,S020000649,신연초등학교,3,부산광역시 남구 유엔로25번길 66,35.129284035,129.0779724431
626,S020000650,연포초등학교,209,부산광역시 남구 못골로 17,35.13724,129.08392
627,S020000651,용당초등학교,13,부산광역시 남구 신선로 341,35.117337,129.094438
628,S020000652,용산초등학교,65,부산광역시 남구 동명로 176번길 55,35.1165382804,129.1160696003
629,S020000654,용호초등학교,80,부산광역시 남구 용호로42번길 94,35.122727,129.109087
630,S020000655,우암초등학교,61,부산광역시 남구 우암로 190-19,35.1253426079,129.0763805543
631,S020000656,운산초등학교,77,부산광역시 남구 용호로269번길 89,35.1102418541,129.115545538
632,S020000660,초량초등학교,48,부산광역시 동구 초량상로 49,35.1157129341,129.036333302
633,S020000800,공덕초등학교,13,부산광역시 금정구 대두로 2,35.2964927916,129.110945257
634,S020000801,교동초등학교,135,부산광역시 동래구 시실로 73-13,35.215458,129.0921785
635,S020000802,구서초등학교,87,부산광역시 금정구 구서중앙로 35,35.253995,129.08716
636,S020000803,금강초등학교,120,부산광역시 동래구 사직북로28번길 125,35.2031349417,129.0641130522
637,S020000804,금사초등학교,44,부산광역시 금정구 윤산로 279,35.2189210691,129.109592814
638,S020000805,금성초등학교,9,부산광역시 금정구 중리1길 15,35.250782,129.058357
639,S020000806,금양초등학교,145,부산광역시 금정구 중앙대로 1755,35.2412356584,129.0920249287
640,S020000807,금정초등학교,165,부산광역시 금정구 식물원로44번길 46,35.2271443094,129.0847749146
641,S020000808,낙민초등학교,101,부산광역시 동래구 충렬대로272번길 34,35.1986281141,129.0879232971
642,S020000809,남산초등학교,87,부산광역시 금정구 금강로 614,35.2621408588,129.089182701
643,S020000810,내산초등학교,33,부산광역시 동래구 중앙대로1335번길 38,35.2073580131,129.0766357805
644,S020000811,내성초등학교,28,부산광역시 동래구 동래로 173,35.2046916044,129.0899801639
645,S020000812,달북초등학교,91,부산광역시 동래구 쇠미로 131,35.2035727544,129.0599959615
646,S020000813,동래초등학교,128,부산광역시 금정구 체육공원로44번길 26,35.2471074345,129.0984811902
647,S020000814,동상초등학교,22,부산광역시 금정구 옥봉로 5,35.2113001794,129.1069492003
648,S020000815,동현초등학교,59,부산광역시 금정구 동현로 36,35.2220212958,129.0927614407
649,S020000816,명동초등학교,91,부산광역시 동래구 명장로63번길 60-5,35.2075929228,129.1062209613
650,S020000817,명륜초등학교,201,부산광역시 동래구 동래로 91,35.2080369857,129.0832716649
651,S020000818,명서초등학교,25,부산광역시 동래구 명서로 121,35.2120687527,129.1008904098
652,S020000819,명장초등학교,64,부산광역시 동래구 복천로 121,35.2081895924,129.0965610519
653,S020000820,미남초등학교,49,부산광역시 동래구 충렬대로100번길 83,35.20363,129.07285
654,S020000821,부곡초등학교,70,부산광역시 금정구 기찰로22번길 15,35.2341134038,129.0932522208
655,S020000822,사직초등학교,182,부산광역시 동래구 쇠미로81번길 7,35.200978,129.054275
656,S020000823,서곡초등학교,7,부산광역시 금정구 윤산로 279,35.2204959527,129.1048501036
657,S020000824,서동초등학교,18,부산광역시 금정구 동현로 147,35.2191131597,129.096881576
658,S020000825,서명초등학교,8,부산광역시 금정구 명서로 48,35.2151654383,129.0946321888
659,S020000826,수안초등학교,42,부산광역시 동래구 온천천로 215,35.2004802079,129.080426142
660,S020000827,안남초등학교,129,부산광역시 동래구 연안로 46,35.1,129.1
661,S020000828,안락초등학교,39,부산광역시 동래구 명안로53번길 22,35.2020063305,129.1030816177
662,S020000829,안민초등학교,133,부산광역시 동래구 온천천로381번길 19,35.1940244641,129.0937993459
663,S020000830,여고초등학교,184,부산광역시 동래구 여고로63번가길 12,35.1979083852,129.0689605745
664,S020000831,온천초등학교,122,부산광역시 동래구 충렬대로107번길 124,35.2128954894,129.0740668801
665,S020000832,장서초등학교,117,부산광역시 금정구 금강로 453,35.2480494029,129.085490305
666,S020000833,장전초등학교,79,부산광역시 금정구 수림로 90,35.2413739273,129.0827577941
667,S020000834,청룡초등학교,84,부산광역시 금정구 팔송로 6,35.272713,129.091913
668,S020000835,현곡초등학교,17,부산광역시 금정구 동부곡로27번라길 20,35.2269162766,129.0967464488
669,S020000836,혜화초등학교,60,부산광역시 동래구 명장로99번길 25,35.2022610009,129.1132941702
670,S020000989,가남초등학교,11,부산광역시 부산진구 엄광로 325,35.1541037512,129.0443517574
671,S020000990,가산초등학교,8,부산광역시 부산진구 엄광로182번길 49,35.1463743833,129.035473298
672,S020000991,가야초등학교,174,부산광역시 부산진구 대학로 22,35.153447,129.03554
673,S020000992,가평초등학교,98,부산광역시 부산진구 가야대로482번길 87,35.14877,129.025045
674,S020000993,개금초등학교,145,부산광역시 부산진구 가야대로443번길 25-10,35.1545236209,129.0195948007
675,S020000995,개림초등학교,124,부산광역시 부산진구 백양대로320번길 40,35.1563685558,129.0161729679
676,S020000996,개원초등학교,87,부산광역시 부산진구 백양관문로77번길 17,35.1645666819,129.0284116631
677,S020000997,개포초등학교,53,부산광역시 부산진구 백양대로208번길 9,35.1588310603,129.0265091054
678,S020000998,개화초등학교,33,부산광역시 부산진구 개금본동로66번길 12-12,35.1585748669,129.0207001137
679,S020000999,거제초등학교,82,부산광역시 연제구 해맞이로 39,35.178097,129.066916
680,S020001000,거학초등학교,137,부산광역시 연제구 교대로24번길 36,35.197478157,129.0768233243
681,S020001001,과정초등학교,104,부산광역시 연제구 과정로164번길 37,35.1867333361,129.1103496797
682,S020001002,남문초등학교,146,부산광역시 연제구 법원북로 23,35.1942358969,129.0695568321
683,S020001003,당감초등학교,40,부산광역시 부산진구 당감로 22-5,35.1642825647,129.0412441339
684,S020001004,당평초등학교,52,부산광역시 부산진구 백양대로136번길 26,35.161399,129.034696
685,S020001005,동명초등학교,34,부산광역시 연제구 쌍미천로44번길 17,35.1781717417,129.0908593909
686,S020001006,동성초등학교,128,부산광역시 부산진구 동성로 26,35.1526862629,129.0695000106
687,S020001007,동원초등학교,93,부산광역시 부산진구 백양산로 43,35.1732013229,129.0311197476
688,S020001008,동평초등학교,66,부산광역시 부산진구 당감서로65번길 31,35.1677097482,129.0352982739
689,S020001010,부산진초등학교,78,부산광역시 부산진구 범천로 30,35.1499919148,129.0562654002
690,S020001011,부암초등학교,136,부산광역시 부산진구 신천대로263번길 26,35.1649917096,129.0487724848
691,S020001012,부전초등학교,64,부산광역시 부산진구 부전로65번길 25,35.1549513549,129.0531116021
692,S020001013,선암초등학교,10,부산광역시 부산진구 엄광로 412,35.1493673638,129.0488765598
693,S020001014,성북초등학교,113,부산광역시 부산진구 황령대로 79,35.151114,129.067774
694,S020001015,성서초등학교,34,부산광역시 부산진구 중앙번영로 25,35.1452327129,129.0619131999
695,S020001016,성전초등학교,63,부산광역시 부산진구 전포대로298번길 15,35.1639899244,129.0663625968
696,S020001017,성지초등학교,108,부산광역시 부산진구 시민공원로 62,35.1646689286,129.0569685233
697,S020001018,양동초등학교,140,부산광역시 부산진구 황령산로605번길 35-10,35.1715208957,129.0810443746
698,S020001019,양성초등학교,91,부산광역시 부산진구 양성로 34,35.170083,129.066298
699,S020001020,양정초등학교,110,부산광역시 부산진구 중앙대로941번길 24,35.1749360165,129.0704415012
700,S020001021,연동초등학교,83,부산광역시 연제구 고분로56번길 40,35.1846359105,129.0882896552
701,S020001022,연미초등학교,31,부산광역시 연제구 금련로38번길 84,35.1707065655,129.0921124529
702,S020001023,연산초등학교,142,부산광역시 연제구 월드컵대로 41,35.1782625861,129.0841270198
703,S020001024,연서초등학교,135,부산광역시 연제구 거제천로270번길 30,35.1909514418,129.0866027128
704,S020001025,연신초등학교,135,부산광역시 연제구 신금로23번길 30,35.1924819682,129.0931581796
705,S020001026,연일초등학교,19,부산광역시 연제구 고분로 126-4,35.1843210406,129.0954558505
706,S020001027,연제초등학교,81,부산광역시 연제구 중앙대로1065번길 14,35.184054562,129.0778734412
707,S020001028,연지초등학교,173,부산광역시 부산진구 연지로 29,35.172447,129.052167
708,S020001029,연천초등학교,104,부산광역시 연제구 과정로225번길 46,35.1862198949,129.1004924559
709,S020001030,연학초등학교,78,부산광역시 부산진구 초읍천로 43번길,35.1766083815,129.0462806167
710,S020001031,전포초등학교,71,부산광역시 부산진구 전포대로255번길 38,35.1594564693,129.0633334028
711,S020001032,주례초등학교,52,부산광역시 부산진구 진사로61번길 28-7,35.1457954311,129.0194536728
712,S020001033,주원초등학교,20,부산광역시 부산진구 복지로 71,35.147202,129.020645
713,S020001034,창신초등학교,160,부산광역시 연제구 종합운동장로12번길 15,35.1928140373,129.0658541993
714,S020001035,초읍초등학교,66,부산광역시 부산진구 성지로104번길 26,35.180714,129.054076
715,S020001036,토현초등학교,58,부산광역시 연제구 토현로 48,35.181951,129.112213
716,S020001235,가락초등학교,7,부산광역시 강서구 호계로 41,35.195793,128.896298
717,S020001237,감전초등학교,30,부산광역시 사상구 괘감로 132,35.155745509,128.9886683276
718,S020001238,괘법초등학교,13,부산광역시 사상구 사상로161번길 8,35.1601831693,128.985795966
719,S020001239,구남초등학교,90,부산광역시 북구 구남로14번가길 23,35.200492,128.99357
720,S020001240,구포초등학교,76,부산광역시 북구 백양대로1124번길 20,35.2027218941,129.000695878
721,S020001241,구학초등학교,71,부산광역시 사상구 학감대로 49,35.1377610169,128.9922151815
722,S020001242,금곡초등학교,46,부산광역시 북구 효열로 174,35.2618153837,129.0170464358
723,S020001243,금창초등학교,32,부산광역시 북구 효열로235번길 14,35.2656921915,129.0197444306
724,S020001244,녹명초등학교,14,부산광역시 강서구 낙동남로 617,35.1148956694,128.8863918326
725,S020001246,대사초등학교,3,부산광역시 강서구 낙동북로 73,35.220358,128.938465
726,S020001247,대상초등학교,6,부산광역시 강서구 대저로 249,35.2141208423,128.9802527162
727,S020001250,대저초등학교,7,부산광역시 강서구 대저로29번길 27,35.2161016787,128.9553078836
728,S020001251,대천리초등학교,47,부산광역시 북구 산성로 87-10,35.242045,129.022821
729,S020001253,덕두초등학교,49,부산광역시 강서구 공항로791번길 68,35.1756477805,128.9558705861
730,S020001254,덕상초등학교,70,부산광역시 사상구 덕상로 32,35.175001,128.990525
731,S020001255,덕성초등학교,43,부산광역시 북구 만덕대로39번길 45,35.2131604,129.0079803
732,S020001256,덕양초등학교,62,부산광역시 북구 함박봉로 42,35.2093033368,129.0230722601
733,S020001257,덕천초등학교,14,부산광역시 북구 덕천2길 10,35.2084322128,129.0067607921
734,S020001258,덕포초등학교,21,부산광역시 사상구 삼덕로 83,35.1739312702,128.986029368
735,S020001259,동궁초등학교,90,부산광역시 사상구 엄궁로 70-7,35.1233276039,128.9746845161
736,S020001260,동주초등학교,94,부산광역시 사상구 가야대로306번길 72,35.1467793,129.0055656
737,S020001261,만덕초등학교,69,부산광역시 북구 만덕1로 72,35.215059,129.029375
738,S020001262,명덕초등학교,125,부산광역시 북구 금곡대로186번길 43,35.2254596795,129.0118102076
739,S020001263,명지초등학교,258,부산광역시 강서구 명지국제6로 296,35.102245,128.92442
740,S020001264,모덕초등학교,125,부산광역시 사상구 덕상로 120,35.1826,128.99189
741,S020001265,모동초등학교,13,부산광역시 사상구 모라로192번길 37,35.185230128,129.0019002649
742,S020001266,모라초등학교,34,부산광역시 사상구 모라로64번길 46,35.190368,128.985684
743,S020001267,모산초등학교,47,부산광역시 사상구 모라로110번길 93,35.1857154985,128.9952074678
744,S020001268,배영초등학교,13,부산광역시 강서구 공항로339번길 260,35.1504956,128.9415315
745,S020001269,백산초등학교,105,부산광역시 북구 덕천로259번길 23,35.2116820842,129.0327720463
746,S020001270,백양초등학교,150,부산광역시 북구 상리로18번길 12,35.576812,129.320119
747,S020001271,사상초등학교,32,부산광역시 사상구 운산로 65,35.168152,128.983274
748,S020001273,삼덕초등학교,17,부산광역시 사상구 삼덕로 24,35.1741853264,128.978216668
749,S020001275,서감초등학교,32,부산광역시 사상구 괘감로 64,35.157646245,128.9822272609
750,S020001279,신금초등학교,49,부산광역시 북구 효열로 42,35.250561,129.014995
751,S020001280,신천초등학교,38,부산광역시 북구 모분재로 83,35.2003622,129.0086765
752,S020001281,신호초등학교,94,부산광역시 강서구 신호산단2로75번길 12,35.082042,128.878235
753,S020001282,양덕초등학교,34,부산광역시 북구 팽나무로 58,35.2058389222,129.0114138055
754,S020001283,양천초등학교,28,부산광역시 북구 덕천로 132,35.213,129.0187
755,S020001284,엄궁초등학교,119,부산광역시 사상구 엄궁로191번길 23,35.1291850945,128.9743982078
756,S020001285,와석초등학교,88,부산광역시 북구 화명대로94번길 83,35.230916355,129.0174847778
757,S020001286,용수초등학교,149,부산광역시 북구 화명신도시로 53,35.2291385897,129.0090762914
758,S020001287,주감초등학교,97,부산광역시 사상구 양지로 48,35.1539156751,129.0014968986
759,S020001288,주학초등학교,4,부산광역시 사상구 가야대로366번길 120,35.146064646,129.0121576627
760,S020001289,창진초등학교,67,부산광역시 사상구 사상로223번길 100,35.1661715458,128.9778074111
761,S020001290,천가초등학교,9,부산광역시 강서구 동선길 135,35.0522407451,128.8310953916
762,S020001294,포천초등학교,81,부산광역시 북구 시랑로 115,35.1966421834,129.009101092
763,S020001295,학장초등학교,40,부산광역시 사상구 대동로 205,35.146129,128.984126
764,S020001296,학진초등학교,83,부산광역시 사상구 대동로 34-16,35.1330479979,128.9751452952
765,S020001297,화명초등학교,72,부산광역시 북구 대천천길 65,35.242449,129.017483
766,S020001447,감천초등학교,11,부산광역시 사하구 원양로 368-2,35.08311,129.007601
767,S020001448,괴정초등학교,91,부산광역시 사하구 낙동대로 152,35.1037632669,128.9997564829
768,S020001449,구덕초등학교,82,부산광역시 서구 보수대로 312,35.1204146238,129.0125311513
769,S020001450,구평초등학교,107,부산광역시 사하구 사하로 9,35.0866191511,128.9890232047
770,S020001451,낙동초등학교,145,부산광역시 사하구 제석로 41,35.1054813057,128.9723479531
771,S020001452,남부민초등학교,17,부산광역시 서구 천마로 153,35.0897861354,129.0224482793
772,S020001453,남항초등학교,42,부산광역시 영도구 남항새싹길 55,35.0836683574,129.0431183933
773,S020001454,다대초등학교,123,부산광역시 사하구 다대로 499,35.059898,128.975934
774,S020001455,다선초등학교,90,부산광역시 사하구 다송로 57,35.0630015969,128.9856791493
775,S020001456,다송초등학교,34,부산광역시 사하구 다대로381번길 17,35.0693261217,128.9798387252
776,S020001457,당리초등학교,27,부산광역시 사하구 다대로 22번길 12,35.0999151849,128.9756920711
777,S020001458,대교초등학교,46,부산광역시 영도구 봉래나루로246번길 19,35.0946939399,129.0457530761
778,S020001459,대신초등학교,123,부산광역시 서구 대신로 63,35.1161807199,129.0117820976
779,S020001460,대평초등학교,38,부산광역시 영도구 절영로 82,35.0876579096,129.0380299212
780,S020001461,동삼초등학교,54,부산광역시 영도구 태종로 610,35.0798259014,129.0734677766
781,S020001462,동신초등학교,72,부산광역시 서구 대영로85번길 81-19,35.114463,129.017576
782,S020001463,봉삼초등학교,9,부산광역시 영도구 함지로79번길 39,35.074591,129.064063
783,S020001464,봉학초등학교,26,부산광역시 영도구 태종로 242,35.0955357488,129.0550151472
784,S020001465,부민초등학교,109,부산광역시 서구 고운들로 12,35.10705,129.01951
785,S020001466,사남초등학교,12,부산광역시 사하구 장평로 390,35.0960640974,128.9830508916
786,S020001467,사동초등학교,38,부산광역시 사하구 승학로 129-2,35.104802,128.981225
787,S020001468,사하초등학교,165,부산광역시 사하구 낙동대로 266,35.0999122182,128.9868986695
788,S020001469,상리초등학교,27,부산광역시 영도구 상리로 38,35.0839470471,129.06707757
789,S020001470,서천초등학교,31,부산광역시 사하구 감천로105번길 10,35.0887431175,129.0038585115
790,S020001471,송도초등학교,58,부산광역시 서구 충무대로 25,35.0783541056,129.0160445801
791,S020001472,승학초등학교,60,부산광역시 사하구 낙동대로135번길 55,35.1021441085,129.0032873503
792,S020001473,신남초등학교,92,부산광역시 사하구 비봉로 88,35.0983561083,128.9616013788
793,S020001474,신선초등학교,4,부산광역시 영도구 산정길 17,35.0836179895,129.0475988517
794,S020001475,신촌초등학교,18,부산광역시 사하구 다대로135번길 30-21,35.0913736814,128.9806654946
795,S020001476,신평초등학교,85,부산광역시 사하구 장평로299번안길 19,35.0943415826,128.9715269448
796,S020001477,아미초등학교,5,부산광역시 서구 해돋이로 241,35.0987383903,129.016068386
797,S020001478,영도초등학교,43,부산광역시 영도구 꿈나무길 41,35.089696,129.045848
798,S020001480,옥천초등학교,83,부산광역시 사하구 사하로 134,35.093885314,128.9936908045
799,S020001481,응봉초등학교,30,부산광역시 사하구 다대낙조2길 26,35.0528398827,128.9650928918
800,S020001482,장림초등학교,95,부산광역시 사하구 장림번영로103번길 10,35.0821696825,128.9765356808
801,S020001483,절영초등학교,10,부산광역시 영도구 함지로 37,35.0728628501,129.0630446515
802,S020001484,중리초등학교,101,부산광역시 영도구 와치로 286,35.074200862,129.0701947332
803,S020001486,중현초등학교,73,부산광역시 사하구 다대낙조2길 8,35.050687,128.966551
804,S020001487,천마초등학교,18,부산광역시 서구 천해로7번길 38,35.0816591586,129.018239568
805,S020001488,청동초등학교,79,부산광역시 영도구 태종로 422번길 51,35.0881201582,129.0673539334
806,S020001489,청학초등학교,34,부산광역시 영도구 청학로 49,35.0932030128,129.0595046113
807,S020001491,태종대초등학교,16,부산광역시 영도구 태종로 802,35.0658506192,129.0791468979
808,S020001492,토성초등학교,88,부산광역시 서구 구덕로134번길 45,35.0992427111,129.0212827237
809,S020001493,하남초등학교,113,부산광역시 사하구 하신번영로 186,35.099464,128.959949
810,S020001494,하단초등학교,47,부산광역시 사하구 하신중앙로 321,35.1054586854,128.9648640709
811,S020001495,화랑초등학교,27,부산광역시 서구 대영로86번길 56,35.1082422159,129.0205048491
812,S020001496,효림초등학교,130,부산광역시 사하구 장평로 106,35.0753783539,128.9741004769
813,S020001645,강동초등학교,142,부산광역시 해운대구 해운대로349번길 10,35.1723205772,129.1367468266
814,S020001646,광남초등학교,103,부산광역시 수영구 광안해변로 115,35.1450717619,129.1134247044
815,S020001647,광안초등학교,125,부산광역시 수영구 광안로35번길 42,35.157169,129.116764
816,S020001648,교리초등학교,113,부산광역시 기장군 기장읍 차성로 427,35.2550658426,129.2167189727
817,S020001649,기장초등학교,75,부산광역시 기장군 기장읍 읍내로 69,35.2456595,129.210097817
818,S020001650,남천초등학교,96,부산광역시 수영구 남천서로 14,35.1435,129.1078
819,S020001651,용암초등학교,9,부산광역시 기장군 기장읍 기장해안로 577,35.225179,129.226861
820,S020001652,대청초등학교,73,부산광역시 기장군 기장읍 차성서로 31,35.235255,129.210254
821,S020001653,동백초등학교,141,부산광역시 해운대구 좌동순환로357번길 6,35.1640193191,129.1812185772
822,S020001654,망미초등학교,83,부산광역시 수영구 수미로35번길 27,35.175942,129.114694
823,S020001655,민락초등학교,123,부산광역시 수영구 광남로257번길 12,35.1609477037,129.1269419776
824,S020001656,민안초등학교,81,부산광역시 수영구 감포로38번길 33,35.1630667094,129.1212162846
825,S020001657,반산초등학교,59,부산광역시 해운대구 재반로 171,35.194019,129.129358
826,S020001658,반석초등학교,12,부산광역시 해운대구 선수촌로207번길 14,35.211403037,129.1249812047
827,S020001659,반송초등학교,34,부산광역시 해운대구 아랫반송로30번길 37-16,35.2235813567,129.1475257468
828,S020001660,반안초등학교,87,부산광역시 해운대구 명장로67번길 40-42,35.203061,129.113182
829,S020001661,반여초등학교,39,부산광역시 해운대구 재반로 301,35.2026797804,129.1294620977
830,S020001662,배산초등학교,95,부산광역시 수영구 망미배산로48번길 85-15,35.1771616964,129.1019363778
831,S020001663,부흥초등학교,144,부산광역시 해운대구 좌동순환로 216,35.1757849774,129.1781921152
832,S020001664,상당초등학교,115,부산광역시 해운대구 세실로 173,35.179739,129.176431
833,S020001665,송운초등학교,59,부산광역시 해운대구 신반송로 20,35.2289,129.15699
834,S020001666,송정초등학교,51,부산광역시 해운대구 해운대로 1164-9,35.1892890474,129.2049894927
835,S020001667,수미초등학교,74,부산광역시 수영구 연수로310번길 91,35.168838,129.103566
836,S020001668,수영초등학교,139,부산광역시 수영구 광서로16번길 33,35.1661243973,129.112086326
837,S020001669,신곡초등학교,88,부산광역시 해운대구 좌동순환로 290,35.1699767248,129.1818693868
838,S020001670,신도초등학교,81,부산광역시 해운대구 좌동순환로 34,35.169239,129.167261
839,S020001671,신재초등학교,57,부산광역시 해운대구 해운대로81번길 81,35.1917692105,129.1227044542
840,S020001672,신진초등학교,38,부산광역시 기장군 철마면 고촌로28번길 10,35.2409208585,129.1714623468
841,S020001673,양운초등학교,68,부산광역시 해운대구 대천로67번길 36,35.1747474972,129.1667064913
842,S020001674,운봉초등학교,30,부산광역시 해운대구 신반송로 11-20,35.2292817698,129.159181215
843,S020001675,운송초등학교,15,부산광역시 해운대구 반송로 839,35.2286388397,129.1460863904
844,S020001676,월내초등학교,31,부산광역시 기장군 장안읍 길천2길 25,35.3281466,129.2830151
845,S020001677,월평초등학교,13,부산광역시 기장군 정관읍 월평1길 21,35.359233,129.139619
846,S020001680,장산초등학교,133,부산광역시 해운대구 선수촌로 68,35.2000411374,129.119652525
847,S020001681,장안초등학교,11,부산광역시 기장군 장안읍 장안로 67-4,35.3465003332,129.2541011978
848,S020001682,재송초등학교,77,부산광역시 해운대구 재반로64번길 33,35.186615,129.127703
849,S020001683,정관초등학교,243,부산광역시 기장군 정관읍 정관로 530,35.3232153844,129.171849499
850,S020001684,좌동초등학교,81,부산광역시 해운대구 세실로 127,35.1760164218,129.1751427969
851,S020001685,좌산초등학교,77,부산광역시 해운대구 좌동순환로311번길 7,35.1688558933,129.1838586884
852,S020001686,좌천초등학교,10,부산광역시 기장군 장안읍 좌천로 13-66,35.311952112,129.2395583776
853,S020001687,죽성초등학교,20,부산광역시 기장군 기장읍 죽성로 270,35.242749,129.24358
854,S020001688,철마초등학교,21,부산광역시 기장군 철마면 철마로 493,35.3,129.2
855,S020001689,칠암초등학교,14,부산광역시 기장군 일광읍 박영준길 19,35.2987514122,129.2559104668
856,S020001690,해강초등학교,127,부산광역시 해운대구 해운대해변로 73,35.1621542761,129.1417216975
857,S020001691,해동초등학교,57,부산광역시 해운대구 우동1로 104,35.170471,129.155384
858,S020001692,해림초등학교,163,부산광역시 해운대구 해운대로469번길 42,35.165021031,129.1438994664
859,S020001693,해송초등학교,115,부산광역시 해운대구 좌동순환로402번길 32,35.16486,129.17953
860,S020001694,해운대초등학교,146,부산광역시 해운대구 중동2로24번길 30,35.1649079143,129.1656508681
861,S020001695,호암초등학교,93,부산광역시 수영구 호암로29번길 57,35.158325,129.106663
862,S020001814,충렬초등학교,27,부산광역시 동래구 안락로125번길 22,35.2004180338,129.1117006171
863,S020001826,금명초등학교,90,부산광역시 북구 화명신도시로 197,35.241938,129.011116
864,S020001840,명진초등학교,112,부산광역시 북구 화명신도시로 159,35.2385600023,129.0104466385
865,S020001841,학사초등학교,96,부산광역시 북구 용당로15번길 20,35.231252,129.007994
866,S020001842,화잠초등학교,81,부산광역시 북구 화명대로 97-25,35.2359545732,129.0173327849
867,S020001843,인지초등학교,88,부산광역시 해운대구 반여로 128,35.20275,129.125065
868,S020001867,용문초등학교,142,부산광역시 남구 신선로 542,35.1306768379,129.1081427037
869,S020001870,을숙도초등학교,111,부산광역시 사하구 낙동대로 581,35.1155457039,128.9612457152
870,S020001872,금샘초등학교,29,부산광역시 금정구 금샘로 525,35.2690591816,129.0838927614
871,S020001873,신덕초등학교,49,부산광역시 북구 함박봉로140번가길 25,35.203029,129.032337
872,S020001874,상학초등학교,28,부산광역시 북구 상학산복길 191,35.2186792324,129.0400228992
873,S020001890,동양초등학교,33,부산광역시 부산진구 백양산로 99,35.1766933055,129.0307456615
874,S020001891,보림초등학교,102,부산광역시 사하구 장림로161번길 20,35.084015609,128.96743243
875,S020001892,무정초등학교,61,부산광역시 해운대구 반여로 68-11,35.1981556893,129.1237796708
876,S020001902,두실초등학교,134,부산광역시 금정구 중앙대로1893번길 33,35.2531581054,129.0894003203
877,S020001903,안진초등학교,78,부산광역시 동래구 안남로 63,35.1950834627,129.0992540331
878,S020001904,삼어초등학교,64,부산광역시 해운대구 삼어로91번길 73,35.208891,129.115771
879,S020001905,센텀초등학교,239,부산광역시 해운대구 센텀중앙로 166,35.1811310567,129.1219403701
880,S020001906,송수초등학교,182,부산광역시 해운대구 해운대로76번길 35,35.1898830646,129.1192612257
881,S020001912,주양초등학교,57,부산광역시 사상구 백양대로 372-6,35.15409,129.01211
882,S020001917,예원초등학교,134,부산광역시 동래구 사직로 78,35.1958815304,129.05739089
883,S020001997,몰운대초등학교,159,부산광역시 사하구 다대낙조2길 110,35.0550489706,128.9631292922
884,S020002001,오륙도초등학교,90,부산광역시 남구 오륙도로 57,35.1042372572,129.1161857392
885,S020002003,내리초등학교,38,부산광역시 기장군 기장읍 소정안길 50,35.2057630887,129.205505214
886,S020002006,명호초등학교,273,부산광역시 강서구 명지오션시티2로 41,35.085128,128.900092
887,S020002010,신정초등학교,129,부산광역시 기장군 정관읍 정관로 460,35.328694,129.167679
888,S020002016,달산초등학교,121,부산광역시 기장군 정관읍 정관로 674,35.3194602297,129.1875988179
889,S020002041,남명초등학교,146,부산광역시 강서구 명지오션시티11로 132,35.0838734245,128.910972022
890,S020002045,용소초등학교,197,부산광역시 남구 수영로325번길 114,35.1428483673,129.0994999809
891,S020002053,방곡초등학교,216,부산광역시 기장군 정관면 정관덕산길 61,35.322533,129.186392
892,S020002054,녹산초등학교,219,부산광역시 강서구 과학산단2로20번길 55,35.1514737699,128.8371218322
893,S020002055,해원초등학교,183,부산광역시 해운대구 마린시티2로 10,35.159115,129.144141
894,S020002071,정원초등학교,217,부산광역시 기장군 정관읍 정관로 423,35.3319663322,129.1672717016
895,S020002091,부산알로이시오초등학교,6,부산광역시 서구 천해로13번길 16-9,35.0832763905,129.0163674484
896,S020002149,금빛초등학교,124,부산광역시 금정구 소정로 31,35.2279772724,129.0803593292
897,S020002177,화정초등학교,134,부산광역시 북구 의성로 23,35.218276,129.009816
898,S020002182,모전초등학교,309,부산광역시 기장군 정관읍 정관1로 17,35.3,129.1
899,S020002198,가동초등학교,210,부산광역시 기장군 정관읍 정관5로 100,35.3269004728,129.1785850429
900,S020002202,송정초등학교,140,부산광역시 강서구 신호산단4로 10,35.08518,128.87389
901,S020002213,오션초등학교,193,부산광역시 강서구 명지오션시티6로 72,35.080025,128.906182
902,S020002232,신명초등학교,255,부산광역시 강서구 명지국제7로 178,35.099842838,128.9217625523
903,S020002257,명일초등학교,163,부산광역시 강서구 명지국제5로 170-5,35.109485,128.922775
904,S020002276,명원초등학교,342,부산광역시 강서구 명지국제6로 147,35.093779,128.912103
905,S020002277,일광초등학교,174,부산광역시 기장군 일광읍 해빛로 46,35.267583,129.225424
906,S020002312,해빛초등학교,161,부산광역시 기장군 일광면 해빛6로 9,35.15526,129.13177
907,S000003493,경북대학교사범대학부설초등학교,82,대구광역시 중구 달구벌대로 2150,35.863582926,128.5980661173
908,S000003506,대구교육대학교대구부설초등학교,72,대구광역시 달서구 도원남로 19,35.8059681995,128.532385028
909,S030000406,남대구초등학교,28,대구광역시 남구 중앙대로47길 55,35.8535679673,128.5864815514
910,S030000407,대구감삼초등학교,37,대구광역시 달서구 당산로 123,35.8491792286,128.5451481139
911,S030000408,대구감천초등학교,51,대구광역시 달서구 구마로12길 60,35.8352251225,128.5330980532
912,S030000409,대구남덕초등학교,38,대구광역시 남구 앞산순환로93길 33,35.833064061,128.5739489212
913,S030000410,대구남도초등학교,89,대구광역시 남구 현충동길 74,35.844978,128.581432
914,S030000411,대구남명초등학교,35,대구광역시 남구 큰골4길 41,35.834632,128.581963
915,S030000412,대구남부초등학교,52,대구광역시 달서구 야외음악당로 15길,35.8440887039,128.5496890192
916,S030000413,대구남송초등학교,35,대구광역시 달서구 송현로 192,35.8349094046,128.5453626796
917,S030000414,대구내당초등학교,37,대구광역시 달서구 명덕로 22-9,35.8606381192,128.5723818033
918,S030000415,대구노전초등학교,73,대구광역시 달서구 한실로 43,35.808174621,128.5312237733
919,S030000416,대구대곡초등학교,73,대구광역시 달서구 도원남로 60,35.8032980375,128.5357055091
920,S030000417,대구대남초등학교,64,대구광역시 달서구 월배로68길 91,35.8244080578,128.5517454692
921,S030000418,대구대덕초등학교,41,대구광역시 남구 대명서로 28,35.8301833,128.5618125
922,S030000419,대구대명초등학교,82,대구광역시 남구 대명로 100,35.8388687716,128.5688886063
923,S030000420,대구대봉초등학교,80,대구광역시 남구 대봉로26길 33,35.850935,128.60515
924,S030000421,대구대서초등학교,86,대구광역시 달서구 송현로 9,35.820381,128.550298
925,S030000422,대구대진초등학교,73,대구광역시 달서구 상화로 70,35.8,128.5
926,S030000423,대구덕인초등학교,71,대구광역시 달서구 대명천로43길 66,35.8385670836,128.5344727192
927,S030000424,대구도원초등학교,54,대구광역시 달서구 도원남로 100-30,35.8047080888,128.5421311817
928,S030000425,대구본리초등학교,191,대구광역시 달서구 장기로 198,35.8445731621,128.5386393144
929,S030000426,대구봉덕초등학교,111,대구광역시 남구 효성로 71,35.8396828008,128.5968427816
930,S030000427,대구상원초등학교,49,대구광역시 달서구 월곡로20길 15,35.8063680145,128.5506771102
931,S030000428,대구상인초등학교,76,대구광역시 달서구 월곡로 211,35.812934092,128.542675271
932,S030000429,대구선원초등학교,39,대구광역시 달서구 선원로33길 105,35.86112,128.51545
933,S030000430,대구성곡초등학교,57,대구광역시 달서구 선원남로 127,35.858243,128.513496
934,S030000431,대구성남초등학교,55,대구광역시 달서구 성당로47길 35,35.8533292596,128.5722861511
935,S030000432,대구성당초등학교,160,대구광역시 달서구 대명천로 118,35.840558244,128.5472917467
936,S030000433,대구성명초등학교,43,대구광역시 남구 성당로30길 55,35.84606,128.571066
937,S030000434,대구성산초등학교,69,대구광역시 달서구 선원남로 173,35.857894477,128.5189178619
938,S030000435,대구성서초등학교,44,대구광역시 달서구 달구벌대로 1339,35.8519600302,128.514447865
939,S030000436,대구성지초등학교,57,대구광역시 달서구 새동네로 27,35.8,128.5
940,S030000437,대구송일초등학교,85,대구광역시 달서구 학산로2길 38,35.824401,128.532807
941,S030000438,대구송현초등학교,60,대구광역시 달서구 송현로 128,35.8286874656,128.544830368
942,S030000439,대구신당초등학교,18,대구광역시 달서구 서당로 14,35.8532942035,128.4962886587
943,S030000440,대구신서초등학교,30,대구광역시 달서구 계대동문로3길 46,35.857827,128.494718
944,S030000441,대구신흥초등학교,83,대구광역시 달서구 두류공원로 257,35.8563629247,128.5563394339
945,S030000442,대구영선초등학교,44,대구광역시 남구 영선길 96,35.8,128.5
946,S030000443,대구와룡초등학교,78,대구광역시 달서구 선원남로 22,35.8570744915,128.5018547557
947,S030000444,대구용산초등학교,70,대구광역시 달서구 와룡로49길 80,35.855623,128.532276
948,S030000445,대구용전초등학교,75,대구광역시 달서구 용산로 260,35.8610906609,128.5312137634
949,S030000446,대구월곡초등학교,19,대구광역시 달서구 상인로 40,35.8121608115,128.5492674201
950,S030000447,대구월배초등학교,73,대구광역시 달서구 월배로 131,35.8164194631,128.5283107127
951,S030000448,대구월성초등학교,37,대구광역시 달서구 학산로7길 26,35.831016,128.531918
952,S030000449,대구월촌초등학교,82,대구광역시 달서구 상인서로 60,35.816358032,128.5432725947
953,S030000450,대구이곡초등학교,59,대구광역시 달서구 선원남로 120,35.8568461283,128.5137305055
954,S030000451,대구장기초등학교,88,대구광역시 달서구 장기로 280,35.8443932947,128.5290111263
955,S030000452,대구장산초등학교,75,대구광역시 달서구 장산로 30,35.854392,128.52663
956,S030000453,대구죽전초등학교,54,대구광역시 달서구 죽전길 127,35.85739,128.54002
957,S030000454,대구진월초등학교,51,대구광역시 달서구 진천로4길 32,35.8109010359,128.5282890246
958,S030000455,대구진천초등학교,75,대구광역시 달서구 상화로9길 65,35.811447,128.519505
959,S030000456,대구파호초등학교,51,대구광역시 달서구 달서대로109안길 76,35.8505949,128.4816131
960,S030000457,대구학산초등학교,12,대구광역시 달서구 월성로 76,35.8311078275,128.5260825785
961,S030000458,대구효명초등학교,61,대구광역시 남구 앞산순환로 707,35.8346520211,128.6010844452
962,S030000459,효성초등학교,90,대구광역시 달서구 송현로 81,35.8239682,128.5422577
963,S030000565,대구가창초등학교,40,대구광역시 달성군 가창면 가창로 640,35.7710495412,128.6482451992
964,S030000567,대구구지초등학교,83,대구광역시 달성군 구지면 창리로11길 45-11,35.660131,128.412452
965,S030000568,대구금계초등학교,30,대구광역시 달성군 옥포읍 금계길 55,35.78883681,128.4437326009
966,S030000569,대구금포초등학교,17,대구광역시 달성군 논공읍 금포초등길 28,35.7742931202,128.4254974886
967,S030000570,대구남동초등학교,38,대구광역시 달성군 논공읍 논공로 258,35.724901,128.456513
968,S030000571,대구다사초등학교,130,대구광역시 달성군 다사읍 다사로 86,35.8694285387,128.4584837107
969,S030000573,대구동곡초등학교,11,대구광역시 달성군 하빈면 달구벌대로55길 104-4,35.8793651316,128.4173547453
970,S030000574,대구반송초등학교,16,대구광역시 달성군 옥포읍 용연사길 5,35.7566190095,128.4946928788
971,S030000575,대구북동초등학교,32,대구광역시 달성군 논공읍 논공로11길 18,35.729478065,128.4413208802
972,S030000577,대구서재초등학교,115,대구광역시 달성군 다사읍 서재로 100,35.8719220935,128.4983793901
973,S030000579,대구옥포초등학교,53,대구광역시 달성군 옥포읍 비슬로 2220,35.787839,128.464493
974,S030000580,대구용계초등학교,56,대구광역시 달성군 가창면 가창로221길 1,35.8,128.6
975,S030000582,대구유가초등학교,290,대구광역시 달성군 유가읍 테크노대로5길 34,35.6922382,128.4677411
976,S030000585,대구하빈초등학교,18,대구광역시 달성군 하빈면 하빈로 391-1,35.901535,128.442008
977,S030000588,대구현풍초등학교,49,대구광역시 달성군 현풍읍 비슬로134길 167-6,35.6981103238,128.4484674808
978,S030000590,대구화남초등학교,77,대구광역시 달성군 화원읍 명천로 181,35.8000212831,128.498010043
979,S030000591,대구화원초등학교,66,대구광역시 달성군 화원읍 비슬로 2580,35.803361,128.499439
980,S030000658,계성초등학교,127,대구광역시 중구 달성로 15,35.8660756184,128.5815806743
981,S030000659,대구경동초등학교,223,대구광역시 수성구 청호로76길 12,35.8522052607,128.6393815998
982,S030000660,대구고산초등학교,158,대구광역시 수성구 달구벌대로 3067,39.2,134.6
983,S030000661,대구공산초등학교,22,대구광역시 동구 팔공로197길 35,35.9566562437,128.6901142019
984,S030000662,대구남산초등학교,180,대구광역시 중구 남산로 70,35.8632413032,128.5827598189
985,S030000663,대구노변초등학교,91,대구광역시 수성구 노변공원로 52,35.83762373,128.6976647147
986,S030000664,대구대청초등학교,142,대구광역시 수성구 교학로12길 42,35.8,128.6
987,S030000665,대구덕성초등학교,39,대구광역시 동구 아양로34길 50,35.8818661749,128.6283218058
988,S030000666,대구동덕초등학교,42,대구광역시 중구 동덕로26길 20,35.8647211,128.6046279
989,S030000667,대구동도초등학교,207,대구광역시 수성구 동대구로57길 8,35.857078,128.624682
990,S030000668,대구동문초등학교,29,대구광역시 수성구 효행로2길 111,35.8748360888,128.6524256544
991,S030000669,대구동부초등학교,27,대구광역시 동구 신암북로7길 22,35.888025816,128.6198324409
992,S030000670,대구동산초등학교,50,대구광역시 수성구 동대구로42길 29,35.8491401822,128.6280729295
993,S030000671,대구동성초등학교,133,대구광역시 수성구 수성로 311,35.8534286494,128.6126988744
994,S030000672,대구동신초등학교,119,대구광역시 동구 송라로 123,35.877658,128.615285
995,S030000673,대구동원초등학교,75,대구광역시 수성구 국채보상로 1000,35.8648683803,128.6398859725
996,S030000674,대구동인초등학교,34,대구광역시 중구 국채보상로 728,35.8680836639,128.6095066499
997,S030000675,대구동일초등학교,100,대구광역시 수성구 들안로 311,35.8581009045,128.6168809197
998,S030000676,대구동천초등학교,249,대구광역시 수성구 상록로16길 20,35.865845443,128.6252837996
999,S030000677,대구동촌초등학교,79,대구광역시 동구 동촌로 168,35.8820275576,128.6589309657
1000,S030000678,대구두산초등학교,57,대구광역시 수성구 동대구로6길 31,35.8325968529,128.6260881781
1001,S030000679,대구만촌초등학교,43,대구광역시 수성구 국채보상로214길 33,35.8666904417,128.6479211335
1002,S030000680,대구매호초등학교,84,대구광역시 수성구 달구벌대로647길 30,35.8415088747,128.7121172767
1003,S030000681,대구명덕초등학교,62,대구광역시 중구 남산로2길 125,35.85815,128.58959
1004,S030000682,대구반야월초등학교,116,대구광역시 동구 안심로49길 70,35.869101,128.71101
1005,S030000683,대구방촌초등학교,61,대구광역시 동구 동촌로42길 35-14,35.880793,128.6631
1006,S030000684,대구범물초등학교,24,대구광역시 수성구 지범로41길 33,35.821484423,128.6448571951
1007,S030000685,대구범어초등학교,105,대구광역시 수성구 달구벌대로489길 55,35.8606794772,128.6327723835
1008,S030000686,대구범일초등학교,110,대구광역시 수성구 범안로4길 22,35.8163149162,128.6388291375
1009,S030000687,대구복명초등학교,51,대구광역시 수성구 범안로20길 8,35.817775,128.647175
1010,S030000688,대구불로초등학교,45,대구광역시 동구 방천로3길 19,35.8974791818,128.6335013847
1011,S030000689,대구삼덕초등학교,73,대구광역시 중구 달구벌대로447길 10,35.86354,128.6084
1012,S030000690,대구서촌초등학교,6,대구광역시 동구 파계로 525-11,35.9803813336,128.6317672342
1013,S030000691,대구성동초등학교,252,대구광역시 수성구 청수로45길 27,35.841572,128.632329
1014,S030000692,대구송정초등학교,158,대구광역시 동구 안심로90길 9,35.870381,128.733533
1015,S030000694,대구수성초등학교,94,대구광역시 수성구 상화로5길 40,35.8368448981,128.6101590305
1016,S030000695,대구수창초등학교,74,대구광역시 중구 달성로22길 30,35.874561,128.584003
1017,S030000696,대구숙천초등학교,149,대구광역시 동구 숙천로 17,35.8769822011,128.7532451656
1018,S030000697,대구시지초등학교,27,대구광역시 수성구 달구벌대로631길 17,35.8437840268,128.7031925823
1019,S030000698,대구신매초등학교,75,대구광역시 수성구 달구벌대로650길 26,35.8363451697,128.7092219482
1020,S030000699,대구신성초등학교,58,대구광역시 동구 동북로71길 29,35.8906372548,128.6295601195
1021,S030000700,대구신천초등학교,117,대구광역시 동구 송라로6길 5,35.8716560832,128.6210092702
1022,S030000701,대구아양초등학교,37,대구광역시 동구 아양로 221,35.8872124,128.6375172
1023,S030000702,대구안일초등학교,114,대구광역시 동구 율하동로23길 66,35.8714244693,128.6952236437
1024,S030000703,대구용지초등학교,126,대구광역시 수성구 지산로 12,35.822482,128.632815
1025,S030000704,대구용호초등학교,86,대구광역시 동구 동촌로56길 82,35.877035,128.672416
1026,S030000705,대구욱수초등학교,92,대구광역시 수성구 신매로 20,35.4953,128.42275
1027,S030000706,대구율하초등학교,36,대구광역시 동구 율하동로15길 1,35.8678135833,128.7015368671
1028,S030000707,대구입석초등학교,50,대구광역시 동구 아양로 300,35.8907837133,128.64341038
1029,S030000708,대구종로초등학교,14,대구광역시 중구 경상감영길 49,35.872521,128.589802
1030,S030000709,대구지묘초등학교,39,대구광역시 동구 파계로6길 54-3,35.9430617153,128.6385438007
1031,S030000711,대구지봉초등학교,31,대구광역시 수성구 지범로31길 45,35.82549,128.64053
1032,S030000712,대구지산초등학교,33,대구광역시 수성구 지범로17길 3-14,35.8269580694,128.6301691131
1033,S030000713,대구초등학교,64,대구광역시 중구 명륜로23길 80,35.8640369029,128.595369577
1034,S030000714,대구파동초등학교,42,대구광역시 수성구 파동로51길 34,35.8246830927,128.6077312552
1035,S030000715,대구해서초등학교,70,대구광역시 동구 팔공로 220-4,35.918205,128.643005
1036,S030000716,대구해안초등학교,25,대구광역시 동구 옻골로 50,35.8961788354,128.6830241105
1037,S030000717,대구황금초등학교,99,대구광역시 수성구 들안로32길 22,35.844047,128.6096184
1038,S030000718,대구효동초등학교,17,대구광역시 동구 효동로 78-7,35.8840383343,128.6448212379
1039,S030000719,대구효목초등학교,56,대구광역시 동구 화랑로27길 25,35.8761640878,128.6423288138
1040,S030000720,대구효신초등학교,19,대구광역시 동구 동부로34길 70,35.8726700059,128.6321105422
1041,S030000721,동대구초등학교,117,대구광역시 동구 신암남로 45,35.879656,128.621262
1042,S030000722,대구삼육초등학교,40,대구광역시 수성구 청수로 22-23,35.8397655677,128.6106253393
1043,S030000723,영신초등학교,128,대구광역시 동구 팔공로50길 32,35.919534,128.645271
1044,S030000863,대구강북초등학교,123,대구광역시 북구 구암서로 50,35.940862712,128.5667668562
1045,S030000864,대구경운초등학교,48,대구광역시 서구 평리로54길 16,35.861751,128.553005
1046,S030000865,대구경진초등학교,17,대구광역시 북구 경진로12길 5,35.8917288855,128.6176044043
1047,S030000866,대구관남초등학교,52,대구광역시 북구 칠곡중앙대로91길 10,35.936837528,128.5477923765
1048,S030000867,대구관음초등학교,43,대구광역시 북구 관음동로17길 16,35.9,128.5
1049,S030000868,대구관천초등학교,28,대구광역시 북구 구암로22길 17,35.9305720143,128.5520401543
1050,S030000869,대구교동초등학교,32,대구광역시 북구 관음중앙로34길 4,35.9447536094,128.5494317514
1051,S030000870,대구구암초등학교,67,대구광역시 북구 학정로 245,35.9281441561,128.5577585259
1052,S030000871,대구내서초등학교,38,대구광역시 서구 달구벌대로371길 35,35.8638187525,128.5667587689
1053,S030000872,대구달산초등학교,169,대구광역시 북구 옥산로17길 37,35.887719,128.584989
1054,S030000873,대구달서초등학교,128,대구광역시 서구 국채보상로34길 35,35.8668446974,128.5505173128
1055,S030000874,대구달성초등학교,45,대구광역시 서구 고성로 127,35.882473,128.579162
1056,S030000876,대구대산초등학교,20,대구광역시 북구 신천동로 900,35.8971404,128.5935
1057,S030000877,대구대성초등학교,34,대구광역시 서구 국채보상로 426,35.8704052565,128.5771539788
1058,S030000878,대구대천초등학교,64,대구광역시 북구 구암로21길 54,35.9372103756,128.5543639644
1059,S030000879,대구도남초등학교,70,대구광역시 북구 구리로 202,35.94886,128.57712
1060,S030000880,대구동평초등학교,124,대구광역시 북구 동천로 84,35.938638,128.560727
1061,S030000881,대구두류초등학교,15,대구광역시 서구 달구벌대로357길 22,35.86164,128.559921
1062,S030000882,대구매천초등학교,53,대구광역시 북구 매천로 179,35.9133253279,128.5410376667
1063,S030000883,대구문성초등학교,88,대구광역시 북구 복현로 180,35.9,128.6
1064,S030000884,대구복현초등학교,162,대구광역시 북구 공항로 58,35.8976052987,128.6215382982
1065,S030000885,대구북부초등학교,44,대구광역시 북구 동천로 20,35.9334780127,128.5592149898
1066,S030000886,대구북비산초등학교,19,대구광역시 서구 통학로48길 7,35.8815455172,128.564592085
1067,S030000887,대구비봉초등학교,13,대구광역시 서구 달서로45길 30,35.8827649236,128.5686556005
1068,S030000888,대구비산초등학교,63,대구광역시 서구 통학로 202,35.8785964805581,128.564525772194
1069,S030000889,대구산격초등학교,54,대구광역시 북구 산격로10길 14,35.894281,128.606911
1070,S030000891,대구서도초등학교,50,대구광역시 서구 평리로 395,35.867262,128.566194
1071,S030000892,대구서부초등학교,50,대구광역시 서구 달서로26길 25,35.8742252794,128.5747451347
1072,S030000893,대구서평초등학교,12,대구광역시 서구 서대구로45길 60,35.8782869288,128.5479057139
1073,S030000894,대구성북초등학교,69,대구광역시 북구 호국로57길 42,35.9264101438,128.5942863186
1074,S030000895,대구신암초등학교,131,대구광역시 북구 경대로 21,35.8837639646,128.6116222418
1075,S030000896,대구옥산초등학교,121,대구광역시 북구 칠성시장로23길 55,35.8808945699,128.5978779441
1076,S030000897,대구이현초등학교,7,대구광역시 서구 국채보상로37길 35,35.8734858942,128.5503987189
1077,S030000898,대구인지초등학교,65,대구광역시 서구 서대구로66길 20,35.8861819579,128.5672834167
1078,S030000899,대구서변초등학교조야분교장,8,대구광역시 북구 조야로8길 16,35.909813,128.577029
1079,S030000900,대구중리초등학교,22,대구광역시 서구 국채보상로 135,35.8697146195,128.5454316403
1080,S030000901,대구칠곡초등학교,73,대구광역시 북구 칠곡중앙대로110길 5,35.944094,128.549394
1081,S030000902,대구칠성초등학교,257,대구광역시 북구 침산남로32길 17,35.886647,128.593695
1082,S030000903,대구침산초등학교,214,대구광역시 북구 성북로 25,35.8911138008,128.5850731107
1083,S030000904,대구태암초등학교,97,대구광역시 북구 칠곡중앙대로52길 56,35.9,128.5
1084,S030000905,대구태전초등학교,35,대구광역시 북구 칠곡중앙대로75길 16,35.93026,128.546
1085,S030000906,대구태현초등학교,47,대구광역시 북구 태전로 95,35.928421,128.540743
1086,S030000907,대구팔달초등학교,45,대구광역시 북구 매천로2길 19-6,35.898025,128.544868
1087,S030000908,대구평리초등학교,166,대구광역시 서구 국채보상로53길 6-5,35.8723956763871,128.561341583206
1088,S030000909,북대구초등학교,72,대구광역시 북구 동북로37길 68,35.9032855796,128.6095192807
1089,S030000910,서대구초등학교,24,대구광역시 서구 서대구로63길 28-13,35.889449,128.55775
1090,S030001638,대구학남초등학교,122,대구광역시 북구 학정동로 23,35.9462470037,128.5662835989
1091,S030001650,대구중앙초등학교,143,대구광역시 수성구 만촌로 125,35.8700129331,128.6403507079
1092,S030001651,대구운암초등학교,93,대구광역시 북구 대천로 148,35.935612,128.565575
1093,S030001652,대구장동초등학교,172,대구광역시 달서구 달구벌대로304길 112,35.8447908439,128.5317592047
1094,S030001653,대구죽곡초등학교,120,대구광역시 달성군 다사읍 죽곡1길 18,35.8568281653,128.4628091727
1095,S030001654,대구명곡초등학교,28,대구광역시 달성군 화원읍 명곡로 40,35.7966708583,128.4961197905
1096,S030001655,대구천내초등학교,29,대구광역시 달성군 화원읍 성천로 192,35.8094339252,128.5019837129
1097,S030001675,대구장성초등학교,31,대구광역시 달서구 달구벌대로 1429-11,35.8503598624,128.5232636411
1098,S030001676,대구논공초등학교,27,대구광역시 달성군 논공읍 논공로7길 41,35.731342,128.436908
1099,S030001677,대구도림초등학교,61,대구광역시 달성군 다사읍 서재로26길 94,35.8781511831,128.4997988684
1100,S030001682,대구강동초등학교,159,대구광역시 동구 동호로7길 17,35.867879,128.730295
1101,S030001683,대구동호초등학교,89,대구광역시 동구 동호로 25,35.865406338,128.7204736788
1102,S030001684,대구함지초등학교,58,대구광역시 북구 동천로 33,35.9347540374,128.557826178
1103,S030001685,대구동변초등학교,100,대구광역시 북구 동변로 60,35.9191307401,128.6041638152
1104,S030001686,대구서변초등학교,75,대구광역시 북구 호국로43길 35,35.9207555763,128.5950280612
1105,S030001715,대구화동초등학교,45,대구광역시 달성군 화원읍 성암로 38,35.7995471187,128.5096912463
1106,S030001725,대구청림초등학교,44,대구광역시 수성구 고산로 51,35.8356351837,128.7033769036
1107,S030001740,대구월서초등학교,157,대구광역시 달서구 월배로39길 46,35.821822,128.53193
1108,S030001758,대구사월초등학교,200,대구광역시 수성구 달구벌대로656길 46,35.8340526555,128.7150422929
1109,S030001762,대구호산초등학교,65,대구광역시 달서구 달서대로109길 116,35.849128,128.479346
1110,S030001767,대구학정초등학교,84,대구광역시 북구 학남로 32,35.948158,128.568884
1111,S030001809,대구왕선초등학교,126,대구광역시 달성군 다사읍 대실역북로 93,35.863223,128.465317
1112,S030001811,대구유천초등학교,171,대구광역시 달서구 달서대로 39,35.8125723271,128.5118584517
1113,S030001812,대구신월초등학교,177,대구광역시 달서구 조암남로 100,35.8205592592,128.5224992425
1114,S030001813,대구매동초등학교,57,대구광역시 수성구 천을로31길 16,35.8452124847,128.7092085943
1115,S030001814,대구조암초등학교,94,대구광역시 달서구 조암로5길 19,35.8240813319,128.5284354822
1116,S030001818,대구매곡초등학교,72,대구광역시 달성군 다사읍 대실역북로3길 6,35.8622496372,128.4681208285
1117,S030001819,대구관문초등학교,177,대구광역시 북구 매전로 32,35.9086997517,128.5461541014
1118,S030001820,대구용천초등학교,195,대구광역시 달서구 조암남로32길 55,35.8,128.5
1119,S030001821,대구율원초등학교,168,대구광역시 동구 율하동로 55,35.864614,128.700677
1120,S030001825,대구월암초등학교,189,대구광역시 달서구 조암로6길 55,35.828634,128.521853
1121,S030001826,대구한샘초등학교,210,대구광역시 달서구 월배로11길 42,35.817001286,128.5188110902
1122,S030001827,대구들안길초등학교,63,대구광역시 수성구 들안로16길 58,35.8388679279,128.61841169
1123,S030001845,대구사수초등학교,175,대구광역시 북구 내곡로 124,35.9007192966,128.5156156317
1124,S030001849,대구한솔초등학교,154,대구광역시 달서구 조암남로 172-13,35.8161739,128.5156993
1125,S030001853,대구봉무초등학교,158,대구광역시 동구 팔공로53길 30,35.9256703,128.6376507
1126,S030001857,대구율금초등학교,133,대구광역시 동구 안심로16길 70,35.8616374,128.6897477
1127,S030001858,대구새론초등학교,204,대구광역시 동구 과학로13길 5,35.8843355459,128.7170606428
1128,S030001913,대구대실초등학교,223,대구광역시 달성군 다사읍 대실역남로1길 31,35.85312,128.467761
1129,S030001915,대구세천초등학교,299,대구광역시 달성군 다사읍 세천로 182-9,35.874644,128.481112
1130,S030002063,대구비슬초등학교,249,대구광역시 달성군 유가읍 테크노북로 144,35.6960569,128.458744
1131,S030002064,대구강림초등학교,155,대구광역시 달성군 옥포읍 돌미로 15,35.7812447,128.4367987
1132,S030002081,대구포산초등학교,172,대구광역시 달성군 현풍읍 테크노북로 80,35.6,128.4
1133,S030002090,대구삼영초등학교,102,대구광역시 북구 내곡로 63,35.901852,128.510023
1134,S030002095,대구서동초등학교,164,대구광역시 달성군 다사읍 서재로7길 55,35.871878,128.488737
1135,S030002096,대구세현초등학교,181,대구광역시 달성군 구지면 국가산단대로66길 10,35.6597848,128.4198073
1136,S030002126,대구연경초등학교,126,대구광역시 북구 연경중앙로11길 19,35.942303,128.617257
1137,S030002138,대구팔공초등학교,66,대구광역시 동구 연경지묘로 150,35.9474,128.6257
1138,S030002151,대구한실초등학교,134,대구광역시 달서구 한실로6길 108,35.798653,128.528809
1139,S030002177,대구송원초등학교,5,대구광역시 군위군 소보면 송백로 1394,36.253925,128.476425
1140,S030002178,대구군위초등학교,40,대구광역시 군위군 군위읍 동서5길 28,36.2391428,128.5687314
1141,S030002190,대구의흥초등학교석산분교장,0,대구광역시 군위군 삼국유사면 삼국유사로 1314,36.1752568,128.8552187
1142,S030002191,대구의흥초등학교,6,대구광역시 군위군 의흥면 읍내길 67-17,36.1752709,128.7188066
1143,S030002192,대구우보초등학교,0,대구광역시 군위군 우보면 이화길 95,36.1951838,128.660649
1144,S030002193,대구부계초등학교,4,대구광역시 군위군 부계면 치산효령로 1376,36.1019822854,128.6631442708
1145,S030002194,대구고매초등학교,0,대구광역시 군위군 효령면 용매로 970,36.0971172,128.5821717
1146,S030002195,대구효령초등학교,5,대구광역시 군위군 효령면 치산효령로 2386,36.1567297,128.5870662
1147,S000003564,경인교육대학교부설초등학교,98,인천광역시 계양구 안남로 612,37.538018,126.712233
1148,S040000330,갑룡초등학교,81,인천광역시 강화군 강화읍 갑룡길 88,37.7433197153,126.5036692204
1149,S040000331,강화초등학교,38,인천광역시 강화군 강화읍 북문길 36,37.7504307809,126.4861702639
1150,S040000333,교동초등학교,9,인천광역시 강화군 교동면 대룡안길 29,37.7836953704,126.2817105937
1151,S040000334,길상초등학교,32,인천광역시 강화군 길상면 삼랑성길 22,37.637793,126.490646
1152,S040000338,내가초등학교,8,인천광역시 강화군 내가면 강화서로 264,37.7215269729,126.3913386798
1153,S040000342,대월초등학교,21,인천광역시 강화군 강화읍 대월로 216,37.7606109636,126.490171659
1154,S040000345,명신초등학교,12,인천광역시 강화군 하점면 강화서로560번길 22,37.7444356387,126.3904703655
1155,S040000349,불은초등학교,10,인천광역시 강화군 불은면 불은남로544번길 9,37.6836644126,126.487515446
1156,S040000350,삼산초등학교,0,인천광역시 강화군 삼산면 삼산북로 451,37.7030443373,126.3216155003
1157,S040000354,삼성초등학교,7,인천광역시 강화군 불은면 중앙로 609,37.7076286438,126.4496053712
1158,S040000355,서도초등학교,0,인천광역시 강화군 서도면 주문도길 173,37.647549,126.251809
1159,S040000360,선원초등학교,31,인천광역시 강화군 선원면 강화동로 924,37.7151040222,126.4799905299
1160,S040000364,송해초등학교,11,인천광역시 강화군 송해면 전망대로 93-12,37.7,126.4
1161,S040000367,양도초등학교,9,인천광역시 강화군 양도면 강화남로 1036,37.6889491193,126.4193953633
1162,S040000368,양사초등학교,8,인천광역시 강화군 양사면 덕하로 145,37.8031685109,126.4215318321
1163,S040000371,조산초등학교,5,인천광역시 강화군 양도면 강화남로 510,37.652960215,126.4386227533
1164,S040000372,교동초등학교지석분교장,0,인천광역시 강화군 교동면 교동북로 275-1,37.8009799692,126.2568722587
1165,S040000373,하점초등학교,11,인천광역시 강화군 하점면 강화대로 1190,37.7737325538,126.4142155255
1166,S040000374,합일초등학교,23,인천광역시 강화군 강화읍 합일길 3,37.7,126.4
1167,S040000375,해명초등학교,3,인천광역시 강화군 삼산면 삼산남로 345,37.6686982335,126.3627091476
1168,S040000378,화도초등학교,15,인천광역시 강화군 화도면 마니산로 717,37.6318390217,126.4187796071
1169,S040000448,대청초등학교,2,인천광역시 옹진군 대청면 대청로244번길 110,37.8326013953,124.6968449307
1170,S040000450,덕적초등학교,5,인천광역시 옹진군 덕적면 덕적남로 15,37.2253805937,126.148196886
1171,S040000455,백령초등학교,9,인천광역시 옹진군 백령면 백령로316번길 91,37.9753725014,124.7153108882
1172,S040000457,북포초등학교,20,인천광역시 옹진군 백령면 가을길 117,37.9586224324,124.6616317942
1173,S040000462,연평초등학교,11,인천광역시 옹진군 연평면 연평로137번길 101,37.664036,125.700788
1174,S040000464,영화초등학교,75,인천광역시 동구 우각로 39,37.471192,126.640365
1175,S040000465,영흥초등학교,26,인천광역시 옹진군 영흥면 영흥로 440-8,37.2537920087,126.4668789069
1176,S040000470,인성초등학교,84,인천광역시 중구 신포로39번길 42,37.4739461586,126.6242484624
1177,S040000471,인천공항초등학교,72,인천광역시 중구 신도시남로 43,37.4918637029,126.486001911
1178,S040000472,인천관교초등학교,102,인천광역시 남구 인하로 414,37.446384,126.692704
1179,S040000474,인천남부초등학교,54,인천광역시 남구 인주대로366번길 22,37.4506956,126.6763166
1180,S040000475,인천대화초등학교,68,인천광역시 미추홀구 석정로301번길 13,37.4,126.6
1181,S040000476,인천도화초등학교,174,인천광역시 미추홀구 경인로 242,37.46335,126.66814
1182,S040000478,인천동명초등학교,84,인천광역시 동구 송림로70번길 10,37.4741131266,126.6420416961
1183,S040000479,인천만석초등학교,60,인천광역시 동구 제물량로 412,37.4844995918,126.6279403484
1184,S040000480,인천문학초등학교,117,인천광역시 미추홀구 매소홀로 553,37.4,126.6
1185,S040000482,인천백학초등학교,45,인천광역시 미추홀구 매소홀로446번길 25,37.43851,126.672222
1186,S040000483,인천서림초등학교,90,인천광역시 동구 금곡로 105,37.4754081419,126.6460194716
1187,S040000484,인천서화초등학교,253,인천광역시 미추홀구 송림로 250,37.4739846974,126.6608131079
1188,S040000485,인천서흥초등학교,85,인천광역시 동구 샛골로 189,37.4786582092,126.6445660579
1189,S040000486,인천석암초등학교,156,인천광역시 미추홀구 주안동로 46,37.462339508,126.6867139669
1190,S040000487,인천송림초등학교,57,인천광역시 동구 화도진로 10,37.4737711164,126.6374354294
1191,S040000488,인천송월초등학교,37,인천광역시 중구 자유공원로 106-8,37.4788776712,126.6246307765
1192,S040000489,인천송현초등학교,87,인천광역시 동구 송화로 45,37.4819057189,126.6340359317
1193,S040000490,인천숭의초등학교,197,인천광역시 미추홀구 장천로 99,37.4637200728,126.6557051133
1194,S040000491,인천승학초등학교,77,인천광역시 미추홀구 주승로 259,37.2,126.4
1195,S040000492,인천신광초등학교,125,인천광역시 중구 인중로 63,37.4633421443,126.6354421433
1196,S040000493,인천신선초등학교,54,인천광역시 중구 축항대로291번길 33,37.4513846403,126.6275664757
1197,S040000494,인천신흥초등학교,49,인천광역시 중구 제물량로 134,37.4702465191,126.6282009187
1198,S040000496,인천연안초등학교,26,인천광역시 중구 연안부두로33번길 53,37.4536879733,126.6076275108
1199,S040000497,인천영종초등학교,150,인천광역시 중구 하늘달빛로 133,37.48862,126.55332
1200,S040000500,인천용유초등학교,3,인천광역시 중구 남북로87번길 4,37.4482508736,126.4123736376
1201,S040000502,인천용일초등학교,60,인천광역시 미추홀구 인주대로 244,37.4524506914,126.6633605896
1202,S040000503,인천용정초등학교,32,인천광역시 미추홀구 독정안길 26,37.4594357227,126.6572348106
1203,S040000504,인천용현남초등학교,153,인천광역시 남구 매소홀로 133,37.4478862953,126.641940676
1204,S040000506,인천용현초등학교,192,인천광역시 미추홀구 낙섬동로 83,37.453902,126.642022
1205,S040000507,인천운서초등학교,41,인천광역시 중구 운서2로 57,37.4835623181,126.5120227366
1206,S040000509,인천인주초등학교,113,인천광역시 남구 매소홀로475번길 53,37.442388444,126.6737250497
1207,S040000510,인천주안남초등학교,94,인천광역시 미추홀구 인주대로434번길 11,37.4495550475,126.6850042843
1208,S040000511,인천주안북초등학교,49,인천광역시 미추홀구 석정로 375,37.4681619809,126.6780578454
1209,S040000512,인천주안초등학교,95,인천광역시 미추홀구 남주길69번길 16,37.454629903,126.6737055217
1210,S040000513,인천창영초등학교,21,인천광역시 동구 우각로15번길 16,37.4715074901,126.6396937197
1211,S040000515,인천연학초등학교,39,인천광역시 미추홀구 주승로 20,37.4435655638,126.6719163923
1212,S040000516,인천학익초등학교,76,인천광역시 미추홀구 한나루로403번길 122,37.4470635248,126.6586383364
1213,S040000639,상인천초등학교,76,인천광역시 남동구 석산로141번길 29,37.4623024794,126.7074171368
1214,S040000641,인천간석초등학교,72,인천광역시 남동구 석산로208번길 37,37.4592586514,126.7154449324
1215,S040000642,인천구월서초등학교,136,인천광역시 남동구 문화서로77번길 14,37.4530268186,126.6950348034
1216,S040000643,인천구월초등학교,61,인천광역시 남동구 인주대로 721번길 49,37.4517367633,126.716838669
1217,S040000644,인천남동초등학교,76,인천광역시 남동구 장승남로33번길 10,37.444897,126.736575
1218,S040000645,인천남촌초등학교,67,인천광역시 남동구 남촌로 101,37.4,126.4
1219,S040000646,인천논곡초등학교,116,인천광역시 남동구 함박뫼로 429,37.4105617671,126.7099543901
1220,S040000647,인천논현초등학교,88,인천광역시 남동구 소래역로 102,37.4,126.7
1221,S040000648,인천능허대초등학교,151,인천광역시 연수구 한진로 12,37.4237,126.648766
1222,S040000649,인천담방초등학교,80,인천광역시 남동구 매소홀로 1027,37.4404903563,126.7363215143
1223,S040000650,인천도림초등학교,89,인천광역시 남동구 논고개로334번길 21,37.419013,126.731729
1224,S040000651,인천동막초등학교,72,인천광역시 연수구 원인재로 36,37.4030452493,126.6745553044
1225,S040000652,인천동부초등학교,79,인천광역시 남동구 만수서로33번길 25,37.4630462163,126.727561344
1226,S040000653,인천동춘초등학교,86,인천광역시 연수구 앵고개로 224,37.409623,126.668996
1227,S040000654,인천만수북초등학교,122,인천광역시 남동구 백범로180번길 25,37.4601265788,126.7289689778
1228,S040000655,인천만수초등학교,50,인천광역시 남동구 소래로 652,37.4473021707,126.7347832758
1229,S040000656,인천만월초등학교,212,인천광역시 남동구 선수촌로 28,37.4418080558,126.7155200677
1230,S040000657,인천문남초등학교,93,인천광역시 연수구 먼우금로 273,37.4209920186,126.6792947025
1231,S040000658,인천박문초등학교,84,인천광역시 연수구 봉재산로 138-22,37.4031172794,126.6654969351
1232,S040000659,인천석정초등학교,149,인천광역시 남동구 석정로539번길 32,37.4670195312,126.6957511624
1233,S040000660,인천석천초등학교,179,인천광역시 남동구 남동대로 828,37.4559807604,126.7087799572
1234,S040000661,인천선학초등학교,92,인천광역시 연수구 선학로 67,37.423955,126.700388
1235,S040000663,인천성리초등학교,121,인천광역시 남동구 성리로 32-2,37.4457374223,126.7099813828
1236,S040000664,인천소래초등학교,107,인천광역시 남동구 장도로 2,37.4044381408,126.7343606685
1237,S040000665,인천송도초등학교,52,인천광역시 연수구 비류대로214번길 21,37.426766207,126.6588706079
1238,S040000666,인천약산초등학교,84,인천광역시 남동구 간석로26번길 10,37.4677406917,126.7102310027
1239,S040000667,인천연성초등학교,163,인천광역시 연수구 원인재로 116,37.4090265378,126.6792960173
1240,S040000668,인천연수초등학교,47,인천광역시 연수구 원인재로 324,37.4227329331,126.6943171882
1241,S040000669,인천연화초등학교,119,인천광역시 연수구 원인재로 150,37.4111886771,126.6818531492
1242,S040000670,인천옥련초등학교,128,인천광역시 연수구 한진로 30,37.4255150871,126.6488484502
1243,S040000671,인천인동초등학교,148,인천광역시 남동구 백범로248번길 38,37.4625373143,126.7225987885
1244,S040000673,인천인수초등학교,77,인천광역시 남동구 인수로 3,37.4540973619,126.7354826126
1245,S040000674,인천장수초등학교,30,인천광역시 남동구 담방로 121,37.4503375771,126.7416528826
1246,S040000675,인천조동초등학교,78,인천광역시 남동구 백범로124번길 164,37.4607526969,126.7397543173
1247,S040000676,인천주원초등학교,38,인천광역시 남동구 주안로259번길 28,37.4651573525,126.700415821
1248,S040000677,인천중앙초등학교,49,인천광역시 연수구 새말로 153,37.4172509316,126.6859800868
1249,S040000678,인천청량초등학교,92,인천광역시 연수구 먼우금로 158,37.41168,126.67442
1250,S040000679,인천청학초등학교,92,인천광역시 연수구 함박뫼로 25,37.4201874138,126.6710965836
1251,S040000680,인천함박초등학교,70,인천광역시 연수구 함박뫼로 87,37.4241289879,126.6771754704
1252,S040000802,인천가림초등학교,32,인천광역시 서구 장고개로293번길 29,37.490565,126.68081
1253,S040000803,인천가석초등학교,56,인천광역시 서구 서달로 174,37.5147554818,126.679676632
1254,S040000804,인천가정초등학교,132,인천광역시 서구 장고개로 336-1,37.491636,126.688079
1255,S040000805,인천가좌초등학교,71,인천광역시 서구 장고개로309번길 5,37.4901504815,126.6835267535
1256,S040000806,인천가현초등학교,216,인천광역시 서구 염곡로 417,37.5219908,126.669119
1257,S040000807,인천갈산초등학교,65,인천광역시 부평구 갈월동로 55,37.5125528685,126.7283497021
1258,S040000808,인천갈월초등학교,96,인천광역시 부평구 주부토로 165,37.5101849804,126.7252094503
1259,S040000809,인천개흥초등학교,60,인천광역시 부평구 길주남로65번길 11,37.5052979143,126.7283126575
1260,S040000810,인천건지초등학교,54,인천광역시 서구 건지로318번길 39,37.4947714869,126.6784321676
1261,S040000811,인천검단초등학교,131,인천광역시 서구 마전로115번길 24,37.61102,126.669609
1262,S040000812,인천계산초등학교,24,인천광역시 계양구 경명대로 1005,37.54475,126.718015
1263,S040000813,인천계양초등학교,96,인천광역시 계양구 장제로 1288,37.578508,126.733453
1264,S040000815,인천구산초등학교,75,인천광역시 부평구 부개로 93,37.5060510005,126.7394433377
1265,S040000816,인천금곡초등학교,44,인천광역시 서구 완정로228번길 19,37.6056417586,126.6509026029
1266,S040000817,인천길주초등학교,96,인천광역시 계양구 용종로 90,37.5420190498,126.7427897451
1267,S040000818,인천단봉초등학교,147,인천광역시 서구 단봉로 122,37.5983206655,126.6384398983
1268,S040000819,인천당하초등학교,140,인천광역시 서구 청마로 144,37.5902290364,126.6780037973
1269,S040000820,인천대정초등학교,94,인천광역시 부평구 안남로 115,37.4,126.7
1270,S040000821,인천동수초등학교,119,인천광역시 부평구 동수로120번길 10,37.484595,126.731138
1271,S040000822,인천동암초등학교,53,인천광역시 부평구 동암남로35번길 4,37.471804,126.707298
1272,S040000823,인천마곡초등학교,13,인천광역시 부평구 마곡로27번길 16,37.511445,126.697849
1273,S040000824,인천마장초등학교,112,인천광역시 부평구 안남로 266,37.5067746759,126.7097589901
1274,S040000825,인천마전초등학교,126,인천광역시 서구 완정로34번길 23,37.597690037,126.6704663104
1275,S040000826,인천명현초등학교,52,인천광역시 계양구 봉오대로569번길 10,37.5319628054,126.712612037
1276,S040000827,인천목향초등학교,87,인천광역시 서구 고산후로 377,37.6164265957,126.6944457132
1277,S040000828,인천미산초등학교,45,인천광역시 부평구 원적로 391,37.5045403005,126.709803831
1278,S040000829,인천백석초등학교,156,인천광역시 서구 청마로 55,37.589607,126.6719751
1279,S040000830,인천백운초등학교,96,인천광역시 부평구 아트센터로 130,37.4,126.7
1280,S040000831,인천병방초등학교,64,인천광역시 계양구 병방로 2,37.5468589443,126.7410213983
1281,S040000832,인천봉수초등학교,23,인천광역시 서구 봉오대로267번길 11-4,37.526386493,126.6786856724
1282,S040000833,인천부개서초등학교,146,인천광역시 부평구 부일로 39,37.4899027374,126.7351800088
1283,S040000834,인천부개초등학교,46,인천광역시 부평구 마분로 9,37.4856641362,126.7382930257
1284,S040000835,인천부곡초등학교,176,인천광역시 부평구 마장로272번길 73,37.503136,126.706809
1285,S040000836,인천부광초등학교,64,인천광역시 부평구 충선로 104,37.498596,126.736625
1286,S040000837,인천부내초등학교,110,인천광역시 부평구 수변로 129,37.4981523565,126.7417008507
1287,S040000838,인천부마초등학교,126,인천광역시 부평구 안남로253번길 41,37.5063470591,126.7058971903
1288,S040000839,인천부원초등학교,124,인천광역시 부평구 원적로472번길 29,37.5021706765,126.719507294
1289,S040000840,인천부일초등학교,55,인천광역시 부평구 부흥북로 175,37.501371,126.74132
1290,S040000841,인천부평남초등학교,141,인천광역시 부평구 경인로911번길 28,37.48847,126.720431
1291,S040000842,인천부평동초등학교,155,인천광역시 부평구 부평대로88번길 19,37.4995152398,126.7244071757
1292,S040000843,인천부평북초등학교,70,인천광역시 부평구 주부토로 292,37.520838,126.729619
1293,S040000844,인천부평서초등학교,126,인천광역시 부평구 부평문화로53번길 19,37.494973,126.721324
1294,S040000845,인천부평초등학교,48,인천광역시 계양구 어사대로 20,37.5423206842,126.7231769972
1295,S040000846,인천부현동초등학교,79,인천광역시 계양구 용종로 5,37.5345644963,126.7404574806
1296,S040000847,인천부현초등학교,61,인천광역시 계양구 장제로755번길 30,37.536095,126.731267
1297,S040000848,인천부흥초등학교,191,인천광역시 부평구 부흥로366번길 34,37.4962548099,126.7311860825
1298,S040000849,인천불로초등학교,123,인천광역시 서구 검단로744번1길 50,37.6139059,126.6893652
1299,S040000850,인천산곡남초등학교,96,인천광역시 부평구 부흥로144번길 30,37.4973731,126.7067498
1300,S040000851,인천산곡북초등학교,60,인천광역시 부평구 산청로 18,37.511563,126.702146
1301,S040000852,인천산곡초등학교,41,인천광역시 부평구 길주로354번길 39,37.507448,126.701776
1302,S040000853,인천삼산초등학교,91,인천광역시 부평구 후정동로 44,37.520786,126.738661
1303,S040000854,인천상정초등학교,49,인천광역시 부평구 상정로 50,37.4796816878,126.699037321
1304,S040000855,인천서곶초등학교,101,인천광역시 서구 대평로56번길 9,37.5,126.6
1305,S040000856,인천서운초등학교,106,인천광역시 계양구 서운로 12,37.5269765617,126.7447193608
1306,S040000857,인천석남서초등학교,74,인천광역시 서구 건지로249번길 6,37.4999904985,126.6707287739
1307,S040000858,인천석남초등학교,86,인천광역시 서구 서달로130번길 4,37.5102331125,126.6799176439
1308,S040000859,인천성지초등학교,64,인천광역시 계양구 아나지로247번길 8,37.5264918287,126.72006788
1309,S040000860,인천소양초등학교,77,인천광역시 계양구 박촌로 53,37.556257834,126.7425325718
1310,S040000862,인천신대초등학교,122,인천광역시 계양구 계산새로 133,37.5,126.7
1311,S040000863,인천신석초등학교,60,인천광역시 서구 새오개로 9,37.5112135795,126.6643998307
1312,S040000864,인천신촌초등학교,51,인천광역시 부평구 경원대로 1215,37.48653,126.70677
1313,S040000865,인천신현북초등학교,67,인천광역시 서구 원창로 147,37.518895,126.666379
1314,S040000867,인천신현초등학교,55,인천광역시 서구 율도로77번길 1,37.514275,126.670106
1315,S040000868,인천심곡초등학교,42,인천광역시 서구 심곡로 114,37.5436350143,126.6826218743
1316,S040000869,인천십정초등학교,52,인천광역시 부평구 배곶북로 10-6,37.474448,126.697577
1317,S040000870,인천안남초등학교,68,인천광역시 계양구 경명대로1114번길 26,37.5,126.7
1318,S040000871,인천안산초등학교,47,인천광역시 계양구 임학서로 15,37.5440931857,126.7317526364
1319,S040000872,인천양지초등학교,64,인천광역시 서구 승학로197번길 11,37.5401416,126.6712271
1320,S040000874,인천용마초등학교,96,인천광역시 부평구 세월천로30번길 58,37.5153974614,126.7076488542
1321,S040000875,인천일신초등학교,62,인천광역시 부평구 항동로75번길 36,37.4838567171,126.7423922825
1322,S040000876,인천작동초등학교,94,인천광역시 계양구 까치말로 35,37.5,126.7
1323,S040000877,인천작전초등학교,79,인천광역시 계양구 주부토로 456,37.535296,126.728702
1324,S040000878,인천창신초등학교,98,인천광역시 서구 고산후로161번길 6,37.59919,126.698386
1325,S040000879,인천천마초등학교,37,인천광역시 서구 서달로 58-5,37.5048975288,126.6793070842
1326,S040000880,인천청천초등학교,70,인천광역시 부평구 산청로127번길 10,37.520468119,126.7003893841
1327,S040000881,인천하정초등학교,20,인천광역시 부평구 이규보로 14,37.4750692396,126.7007335042
1328,S040000882,인천한길초등학교,104,인천광역시 부평구 영성중로 32,37.5191180115,126.7455424873
1329,S040000883,인천화전초등학교,139,인천광역시 계양구 효서로303번길 8,37.5284682592,126.7315547307
1330,S040000884,인천효성남초등학교,92,인천광역시 계양구 새벌로 125,37.5284751733,126.7160193848
1331,S040000885,인천효성동초등학교,36,인천광역시 계양구 새벌로171번길 4,37.5327707578,126.7158628063
1332,S040000886,인천효성서초등학교,84,인천광역시 계양구 봉오대로 457,37.5279816972,126.6986759392
1333,S040000887,인천효성초등학교,55,인천광역시 계양구 안남로 601,37.5368052768,126.7106066312
1334,S040000888,한일초등학교,56,인천광역시 부평구 원적로 247,37.5057394398,126.6937076233
1335,S040001041,인천축현초등학교,57,인천광역시 연수구 청량로 176,37.422846,126.654165
1336,S040001385,인천계양초등학교상야분교장,1,인천광역시 계양구 벌말로 572-1,37.5791257494,126.7803290295
1337,S040001386,인천남부초등학교이작분교장,0,인천광역시 옹진군 자월면 대이작로 60,37.1767640721,126.2527612266
1338,S040001466,인천용현남초등학교자월분교장,0,인천광역시 옹진군 자월면 자월서로 177,37.2530341156,126.3066312665
1339,S040001467,인천용유초등학교무의분교장,0,인천광역시 중구 대무의로 302-17,37.3900840256,126.4260083121
1340,S040001545,인천영종초등학교금산분교장,13,인천광역시 중구 백운로414번길 63-50,37.5134203198,126.5214516989
1341,S040001633,인천삼목초등학교장봉분교장,0,인천광역시 옹진군 북도면 장봉로 553,37.5339109665,126.3376006215
1342,S040001635,인천서면초등학교,76,인천광역시 연수구 먼우금로 54,37.4036656361,126.6708254628
1343,S040001664,인천공항초등학교신도분교장,1,인천광역시 옹진군 북도면 신도로896번길 18-31,37.5200778827,126.4427781056
1344,S040001719,인천신월초등학교,50,인천광역시 남동구 인주대로776번길 14,37.4479283441,126.723371489
1345,S040001720,인천새말초등학교,76,인천광역시 남동구 만수로50번길 12,37.4598709696,126.7338482249
1346,S040001721,인천서창초등학교,171,인천광역시 남동구 장아산로174번길 8,37.4359250656,126.750072941
1347,S040001725,인천삼목초등학교,102,인천광역시 중구 신도시북로 42,37.4986554037,126.4864122305
1348,S040001726,인천봉화초등학교,58,인천광역시 서구 건지로250번길 43,37.4953654241,126.6703238921
1349,S040001727,인천검암초등학교,45,인천광역시 서구 승학로 599번길 45,37.5678534254,126.6785121599
1350,S040001728,인천은지초등학교,88,인천광역시 서구 승학로572번길 22,37.5646993969,126.6849909503
1351,S040001729,인천진산초등학교,47,인천광역시 부평구 굴포로 194-10,37.513045,126.741409
1352,S040001730,인천굴포초등학교,115,인천광역시 부평구 충선로234번길 19,37.5110261578,126.7369241408
1353,S040001732,인천간재울초등학교,211,인천광역시 서구 승학로 433,37.5603364627,126.6722923822
1354,S040001733,인천후정초등학교,89,인천광역시 부평구 영성서로 56,37.5231574741,126.7435875563
1355,S040001734,인천발산초등학교,104,인천광역시 서구 고산후로78번길 6,37.590168382,126.6987107344
1356,S040001735,인천해서초등학교,36,인천광역시 계양구 계산로 42-1,37.5401597722,126.7177130573
1357,S040001789,인천먼우금초등학교,127,인천광역시 연수구 해돋이로84번길 33,37.3933069075,126.6541889504
1358,S040001791,인천경서초등학교,124,인천광역시 서구 경서로31번길 31,37.5566389958,126.6509864713
1359,S040001792,인천왕길초등학교,98,인천광역시 서구 봉수대로1440번길 20,37.6019770137,126.6510601499
1360,S040001793,인천귤현초등학교,141,인천광역시 계양구 귤현길 15,37.569034,126.747039
1361,S040001795,인천원당초등학교,71,인천광역시 서구 원당대로820번길 16,37.5925853298,126.6912323954
1362,S040001796,인천능내초등학교,107,인천광역시 서구 검단로540번길 23,37.6028956252,126.6658682634
1363,S040001797,인천완정초등학교,93,인천광역시 서구 완정로 99,37.5984980482,126.6643297745
1364,S040001800,인천당산초등학교,171,인천광역시 계양구 동양로 122,37.558862,126.759226
1365,S040001803,인천청라초등학교,226,인천광역시 서구 청라에메랄드로 139,37.5377499531,126.655695414
1366,S040001804,인천양촌초등학교,52,인천광역시 계양구 장제로 954,37.550988,126.744181
1367,S040001815,인천영선초등학교,108,인천광역시 부평구 충선로 293,37.515564,126.734292
1368,S040001841,인천동방초등학교,97,인천광역시 남동구 논현역로 31,37.4031605373,126.7195514982
1369,S040001842,인천장도초등학교,57,인천광역시 남동구 포구로 112,37.408071,126.733532
1370,S040001843,인천신송초등학교,95,인천광역시 연수구 해돋이로56번길 28,37.3906431021,126.6577696043
1371,S040001845,인천금마초등학교,64,인천광역시 부평구 일신로 88,37.4784871466,126.7492936203
1372,S040001858,인천은봉초등학교,79,인천광역시 남동구 은봉로312번길 11,37.4054733852,126.7252805877
